,darkness,rainy,throttle_position,average_speed,std_speed,relative_distance,relative_speed,relative_acc,time_of_max_a_to_conflict,max_a_before_conflict,quasi_time_head_way,normal_acc,normal_dec,roll_rate,pitch_rate,yaw_rate,brake_intensity
2793,0,0,1,0.0283963231550318,0.0204810610806875,0.0150425845435417,0.0580172369227332,0.4679539721787943,0.0,0.7170264827075495,0.0156914363286061,0.2573233517756753,0.7750249696274032,0.5679351674123944,0.7087565336477702,0.6264517230696439,1
2803,1,0,0,0.0171381259498596,0.0052535835058231,0.0219598156470484,0.2314141380821269,0.5384615384615385,0.183052746017178,0.7396054686094325,0.0294631054973753,0.3165829098091014,0.7750249696274032,0.5681818213585486,0.7087023978950457,0.5633201880953239,1
2218,0,0,1,0.0247382842522307,0.0051986377466196,0.031468620435119,0.4,0.5000000000000001,0.0,0.8141464350769038,0.0282056691231436,0.5122190091202943,0.7950843204305404,0.5871574899920948,0.7773510741415111,0.5755863574028638,1
3111,0,0,0,0.0634144955730645,0.003876341443589,0.0281057861553062,0.3585863422528306,0.5967377128911477,0.0,0.4291539798408665,0.0170466566226762,0.1763316120226183,0.6933227508680537,0.6026177089191681,0.7234847054940914,0.5538200321142497,2
3161,0,0,0,0.3330657484926388,0.0095337419309985,0.0293505263094913,0.3834240130030826,0.5000000000000001,0.0,0.3682514457183507,0.0022644583719666,0.1763316120226183,0.6197035250424366,0.6589672739870431,0.7211015074132446,0.5843397596749158,2
3182,0,0,0,0.1610253577984966,0.0037778515516432,0.0217708527188124,0.2344510811578593,0.576923076923077,0.0,0.520411946729373,0.0037905627852814,0.1763316120226183,0.8407552054505011,0.0175086166898891,0.7305584877570657,0.7845522153096574,2
166,0,0,0,0.0167421005429517,0.0013901764777597,0.0365153865446685,0.1,0.5000000000000001,0.2222222222222222,0.543956043956044,0.0495189884721948,0.1763316120226183,0.8787920384351406,0.5681818213585486,0.7115384473230629,0.568887042660712,0
1731,0,0,0,0.0110432458119619,0.0179174605646461,0.031298902752573,0.1666666666666666,0.5,0.3333333333333333,0.4615384615384615,0.0408074742771581,0.1203449044822715,0.7456417295813316,0.5681818213585486,0.7115384473230629,0.5716931049971267,0
322,0,0,0,0.0,0.0,0.0305164301837587,0.3666666666666666,0.5,0.0,0.6181318681318682,0.0408074742771581,0.1763316120226183,0.9986273164035688,0.5227273203782287,0.7019230720898414,0.5808711100625643,0
1034,0,0,1,0.0,0.0,0.0344287930278303,0.3666666666666666,0.5,0.0,0.6071428571428572,0.0408074742771581,0.1763316120226183,0.9631205673758866,0.5681818213585486,0.7019230720898414,0.5736253165898504,0
1829,0,0,1,0.1749250136614767,0.5517761368962506,0.25639018653225,0.4,0.4615384615384616,0.1111111111111111,0.410813413390733,0.0408074742771581,0.1763316120226183,0.821551132463967,0.5454545708683886,0.6730769168221477,0.5669430848316809,2
3585,0,0,0,0.1285544600832113,0.0979292534002291,0.0561430760068596,0.0671645155840557,0.4503496779046483,0.943614696248796,0.3240116981591025,0.0154761695671055,0.1763316120226183,0.5696318749569899,0.5681818213585486,0.6545641882934226,0.5732720179672842,2
2019,0,0,0,0.0106474040822393,0.0010883228040408,0.029480032232319,0.38883990735654,0.487122970026777,0.0,0.7219274560696091,0.0902734755484487,0.2150291473440234,0.7750249696274032,0.5529635280984702,0.7083615807941044,0.5678311661821509,1
1211,0,0,1,0.2156841222557791,0.1416336475078892,0.1189358386105334,0.0666666666666666,0.4615384615384616,0.1111111111111111,0.1428571428571429,0.0082013196977599,0.1763316120226183,0.230793868679936,0.6136363922269371,0.8269230683938378,0.5759600722643915,2
1499,0,0,0,0.0,0.0,0.0224308803060106,0.1999999999999999,0.5384615384615384,0.0,0.6868131868131868,0.0408074742771581,0.1780272058276964,0.7750249696274032,0.5681818213585486,0.7019230720898414,0.5716931049971267,0
2328,0,0,0,0.0093358562201855,0.014908658348355,0.0283994484361163,0.3333333333333333,0.5000000000000001,0.0,0.7179279816448124,0.0525188678284962,0.259689376043636,0.7750249696274032,0.5729381084130414,0.7195875608896477,0.5675756876230518,1
2093,0,0,0,0.0110318206101171,0.0176169855830651,0.0280622563193688,0.3333333333333333,0.5000000000000001,0.0,0.7210849893355827,0.0434098643417311,0.2679750838817182,0.7750249696274032,0.5696734786543102,0.7140627943270286,0.5662573236407749,1
14,0,0,0,0.4757321335767848,0.0118892295340279,0.0354720897862494,0.3,0.4615384615384616,0.7777777777777777,0.3131868131868132,0.0018772104749589,0.1763316120226183,0.505971173644475,0.4545454291316113,0.7115384473230629,0.5634505721234246,2
2920,0,0,0,0.0175687289296349,0.0012816085658044,0.0242625308198672,0.0606066718947027,0.4615384615384616,0.3106055511988588,0.7174699166129328,0.0386907959188883,0.2584871638868232,0.7750249696274032,0.5677144846293393,0.704572497713524,0.5713637433662482,1
1798,1,0,0,0.0,0.0,0.0320813753213873,0.0333333333333333,0.4615384615384616,0.7777777777777777,0.6317265209017786,0.0408074742771581,0.0334497881513416,0.7750249696274032,0.3636363572829028,0.7211538225562845,0.5639642586262318,0
3181,0,0,0,0.0403789444390424,0.0056166654381482,0.0147586720593435,0.0170702471618215,0.4812349005713326,0.1111111111111111,0.4553405117927821,0.0145673849809538,0.1763316120226183,0.7488361451337336,0.5512739676160234,0.7386210548515604,0.5705069558595123,2
438,0,0,0,0.0,0.0,0.0229525286852202,0.2333333333333333,0.4621749408983452,0.1111111111111111,0.6923076923076923,0.0408074742771581,0.2104735003344978,0.7750249696274032,0.5681818213585486,0.7211538225562845,0.5677481729953158,0
2501,1,0,0,0.0127399023470121,0.0093216557896776,0.0139788115689652,0.0306317774218511,0.4250130141132333,0.0,0.7561624726154763,0.0297003163707729,0.3600375071067597,0.7750249696274032,0.5819253988390546,0.7251194524347129,0.5490059065541653,1
2834,0,0,1,0.0,0.0,0.0250790139702652,0.2100453084312523,0.4654020417043278,0.3721467081701349,0.7297379272017345,0.0321195647931174,0.2906851061948146,0.7750249696274032,0.5474733457866673,0.6947716629686977,0.5678134464549114,1
2307,0,0,1,0.0088998386480767,0.0025450742379455,0.0270333384712156,0.239484053449368,0.5035484923746355,0.4005732739451467,0.7272603726344616,0.0269073540493547,0.2841826534585275,0.7545325025018939,0.5538406981823152,0.7061409200131377,0.5649846609260434,1
402,0,0,0,0.0,0.0,0.0062597805505146,0.0,0.4230769230769231,0.1111111111111111,0.6181318681318682,0.0408074742771581,0.1763316120226183,0.9986273164035688,0.5000000698880687,0.7019230720898414,0.5708086351405574,0
1728,0,0,0,0.0577793615046566,0.0004344379691208,0.0169535723243103,0.1,0.4230769230769232,0.7777777777777777,0.6510989010989011,0.0134479020778121,0.0951088976436482,0.7750249696274032,0.5909090718487086,0.7115384473230629,0.5716931049971267,0
2377,1,0,1,0.0200525690530411,0.0018642122575397,0.0235867763398577,0.3256975698846834,0.504405248143452,0.0,0.7035488370566815,0.0283988458796861,0.221950668163035,0.7750249696274032,0.5665202214884252,0.7596153826252288,0.5620895028644736,1
2893,0,0,1,0.0018933878957316,0.0002137584236086,0.0230017329695525,0.1112687605987024,0.4282778895070935,0.5630680626213572,0.7286071867827743,0.0211197946978485,0.2877174274084734,0.7750249696274032,0.5267894741888428,0.6890484492628598,0.5682808546464203,1
2488,0,0,1,0.0441362074220949,0.0046729047357527,0.0336078432836545,0.4,0.500945650633031,0.0,0.7911412447350034,0.0181947016107929,0.4518408584779228,0.8935575999609977,0.5687406143676884,0.7216266769794721,0.5736728237148614,1
927,0,0,0,0.0084528537283416,0.0045976356606401,0.0383411558719019,0.5333333333333333,0.5384615384615385,0.0,0.6291208791208791,0.0801409867275065,0.0266111647959562,0.7750249696274032,0.5221398079610486,0.7148691730183062,0.5708880168334918,0
1993,0,0,0,0.1497285250506201,0.2656200122769896,0.1342023559145512,0.0451764103350184,0.4491402367317414,0.0,0.7094053254113935,0.0621126317144255,0.2373212837006973,0.7750249696274032,0.6912008004622883,0.7386754478544746,0.5618015156011913,1
32,0,0,1,0.3366144861686193,0.0023651752721374,0.0286906608565252,0.3333333333333333,0.5000000000000001,0.0,0.5659340659340659,0.002074926796182,0.1763316120226183,0.7278883550674903,0.7045454640756457,0.951923064697834,0.5756070250028743,0
3576,0,0,0,0.3970364726244461,0.0082888287940422,0.0317131909978802,0.3871843527745232,0.4950709049132782,0.0,0.4041930189290953,0.0019049326638572,0.1617641928391219,0.5786565277704404,0.6305383452667501,0.7152352688202839,0.5616573495547132,2
2934,0,0,1,0.0242741940034599,0.005902784520348,0.0303575920221869,0.4,0.4933102934712512,0.0,0.8225040081263181,0.0276025180970222,0.5341538332657427,0.7621945568048142,0.5869560673131107,0.7767545474621328,0.5749701076141226,1
415,0,0,0,0.0281670892761415,0.0009675274993996,0.0302556059941539,0.0666666666666666,0.2307692307692307,0.0,0.5824175824175825,0.0304882390135028,0.1763316120226183,0.940928849233585,0.5681818213585486,0.7115384473230629,0.5637227321771414,0
948,0,0,1,0.0498991074338291,0.0030098474524035,0.0206051109787772,0.2666666666666666,0.5,0.1111111111111111,0.4258241758241758,0.0125753466624285,0.1763316120226183,0.5969572180279111,0.5681818213585486,0.6923076968566199,0.5705659815680378,0
2801,0,0,1,0.0,0.0,0.0352042501006898,0.4072296019088605,0.5309316159352483,0.2222222222222222,0.714765571192586,0.0408074742771581,0.2513894884165482,0.7750249696274032,0.5681818213585486,0.7251217614052513,0.5709207741561536,1
3709,0,0,0,0.1474440333422435,0.0038977779001159,0.0213714839052278,0.2289094748652313,0.5667141727659185,0.0,0.5157797587397472,0.0056610518245035,0.1763316120226183,0.8332716413444518,0.0663578862967779,0.7307692273575351,0.7631623677266823,2
1550,0,0,0,0.0459726200340204,0.0058691903422132,0.031298902752573,0.0666666666666666,0.4768197583614587,0.1111111111111111,0.4368131868131868,0.0208117131813981,0.1763316120226183,0.7056966369251887,0.9090909281512914,0.7019230720898414,0.5736253165898504,2
3651,0,0,0,0.0324226852885841,0.0107728972089048,0.0215824760740901,0.0,0.4763439891995886,0.3333333333333333,0.418523282724532,0.0405299102465555,0.1763316120226183,0.8025028625210696,0.612359509481483,0.7054494645847001,0.5755575281825741,2
889,0,0,0,0.0310543925207168,0.0555110629891974,0.109024519405552,0.0333333333333333,0.3461538461538462,0.1111111111111111,0.4532967032967033,0.0500551866137707,0.1763316120226183,0.7900251658659346,0.5681818213585486,0.730769197789506,0.5728202284262155,0
149,0,0,0,0.5064623356653364,0.6997138078572027,0.8638497485740395,0.5666666666666667,0.4615384615384616,0.4444444444444445,0.3461538461538461,0.0024980999389588,0.1763316120226183,0.5592312971859986,0.6590908932072571,0.7596153826252288,0.5645998998840664,2
1891,1,1,0,0.0,0.0,0.0307772543733634,0.3333333333333333,0.5042735042735044,0.0,0.6189815339299876,0.0408074742771581,0.0,1.0,0.5681818213585486,0.7211538225562845,0.5657354525862286,0
3901,0,0,0,0.1062932986362596,0.0053116466814736,0.0570454057293827,0.5337172440332081,0.4615384615384616,0.4438045932779865,0.4256185093778143,0.008249583891293,0.1763316120226183,0.6876109965276536,0.5224049482848548,0.7053453606296537,0.5931660955809218,2
393,0,0,0,0.0403828234905603,0.005267942968078,0.0357329139758542,0.1666666666666666,0.5576923076923077,1.0,0.4945054945054945,0.0426543500233886,0.1763316120226183,0.7989018531228552,0.5681818213585486,0.7211538225562845,0.5638837498098683,0
2442,0,0,1,0.0419586850125834,0.0063698845993543,0.019424316472445,0.2419383306224307,0.4635300494525985,0.0836351821730712,0.8015781586703813,0.0145002369551507,0.4792330057484442,0.789709553832998,0.5677395909861905,0.7379272931978001,0.5597872318226624,1
1032,0,0,0,0.2969405997943129,0.0015049372705085,0.0352112655966446,0.3333333333333333,0.5000000000000001,0.0,0.5274725274725275,0.0028041286070945,0.1763316120226183,0.8521619766643789,0.52213973807298,0.7244845778195569,0.5630786616462334,0
3862,0,0,0,0.03501557373083,0.0059646093970683,0.0253772660639763,0.2666666666666666,0.5435329902162499,0.0,0.446353211586566,0.0275787669089945,0.1763316120226183,0.721109091498443,0.5681818213585486,0.7353131518857152,0.5823412719008383,2
787,0,0,0,0.0022722582582692,0.0,0.0333854962694112,0.4666666666666667,0.576923076923077,0.2222222222222222,0.6978021978021978,0.4034791763957819,0.2068683565004087,0.7750249696274032,0.5681818213585486,0.7019230720898414,0.5736253165898504,0
3699,0,0,1,0.28354387166769,0.3033440883186705,0.141755191615682,0.0099178343151965,0.4116332680978502,0.1561033267875786,0.3426569084505086,0.0092951135472545,0.1763316120226183,0.5535817947183967,0.5747692180721585,0.7221448596921574,0.5777538040918686,2
655,0,0,1,0.1934885724443256,0.0468083423702201,0.1139801708572868,0.7000000000000001,0.4487179487179488,0.3333333333333333,0.8708791208791209,0.0021854816049337,0.3727049728685051,0.7750249696274032,0.5454545708683886,0.9326923142313912,0.9529023504782412,1
2545,0,0,1,0.0457510365038055,0.006692468750251,0.0188965723593898,0.2688069645691711,0.4758770827615393,0.1182454374527926,0.8047566964752386,0.0130638197274898,0.4875752203335853,0.7750249696274032,0.5676320324891942,0.7230359275178373,0.5584911502347839,1
3225,0,0,1,0.0616763824838837,0.0079633831150725,0.0322999581626092,0.3889961127946337,0.5384615384615385,0.2056818917570614,0.4035201689751087,0.0150015950808664,0.1763316120226183,0.6519098662170276,0.5432191596207094,0.6936476669396414,0.5675420316721418,2
2374,0,0,1,0.0158080457309738,0.0008685034157677,0.033560337016066,0.4221977369271949,0.4679628440804645,0.0,0.7284748084328011,0.0398064674306732,0.2873699945101719,0.7750249696274032,0.6439059922007994,0.7419695025433086,0.570933731553099,1
1565,0,0,0,0.0269673412349115,0.0043155670742028,0.0062597805505146,0.0666666666666666,0.4230769230769231,0.2222222222222222,0.5631868131868132,0.0135927878671824,0.2717609455140117,0.9098604438343628,0.6136363223388684,0.7499999778239782,0.565654943769865,0
3602,0,0,0,0.0093413973998025,0.0025543662523462,0.0341412318214957,0.0299163424003106,0.4631049431191318,0.2222222222222222,0.4875339397806039,0.1185490502831749,0.1763316120226183,0.7876389085231554,0.5681818213585486,0.7009374025901556,0.5745275901712505,2
3341,0,0,0,0.0418264968527433,0.0066326952097931,0.0106414004193733,0.0,0.4768197583614587,0.2222222222222222,0.3862589644817796,0.0108979799651528,0.1763316120226183,0.6240234050753912,0.5681818213585486,0.7038475389048651,0.5730638524463302,2
3511,0,0,0,0.0228076366075774,0.0052486488978955,0.0377387374569376,0.4333333333333333,0.4418196726532112,0.6125209456685009,0.3943212018205862,0.0864073812877874,0.134994022129532,0.7181555037775661,0.5786695592182293,0.7086690473796821,0.5746592875447325,2
1044,0,0,1,0.1287015303474824,0.410106158525264,0.230829415950982,0.0,0.4230769230769231,0.0,0.5851648351648352,0.0408074742771581,0.1763316120226183,0.7633951040951727,0.4318182485295201,0.7019230720898414,0.5504387774771659,0
318,0,0,0,0.0,0.0,0.039384452630321,0.5333333333333333,0.5,0.0,0.6181318681318682,0.0408074742771581,0.1763316120226183,0.9986273164035688,0.5221398079610486,0.7052537977850847,0.5808711100625643,0
2148,0,0,1,0.0168891850232002,0.0020431502915664,0.0337158155447067,0.4484429611582676,0.4615384615384616,0.0,0.7257880347829887,0.0451586705560434,0.2803184369373199,0.7750249696274032,0.6178828259609312,0.7282072532454605,0.5700482895332489,1
642,0,0,0,0.0060805976522177,0.0097231776980308,0.0299947818045491,0.0333333333333333,0.3846153846153847,0.7777777777777777,0.5302197802197802,0.0408074742771581,0.1763316120226183,0.8566003202928392,0.6363635728290284,0.730769197789506,0.5755575281825741,0
3476,0,0,0,0.0815387951982554,0.0127493011918958,0.0252167746220906,0.017337479323203,0.4615384615384616,0.4977639578115455,0.3363640587046962,0.0163747585888251,0.1763316120226183,0.5434153367533936,0.5124301975189554,0.7267263986874791,0.571770874116617,2
3724,0,0,0,0.0936757951320829,0.0109439316312975,0.0268645285989335,0.3047420265465761,0.5384615384615385,0.0,0.2178069742929906,0.0097023143681929,0.1763316120226183,0.3518795995578545,0.5842430764592659,0.7234740114963736,0.572188059247685,2
893,0,0,0,0.0022722582582692,0.0,0.0211267593579868,0.2666666666666666,0.5,0.1111111111111111,0.6016483516483517,0.0408074742771581,0.1763316120226183,0.8299702585220774,0.5909090718487086,0.730769197789506,0.5763626163462089,0
2641,0,0,0,0.024033719074302,0.0006660418275773,0.0168423063227271,0.2144448235707838,0.5384615384615385,0.1681478953972552,0.7546887821740205,0.0218632268912423,0.2859892793158695,0.8382253050747519,0.6381815503014159,0.6832050253655456,0.5687502538642281,1
2399,1,0,0,0.0037789132911619,0.0010935684530107,0.0191183687810594,0.1925394128392458,0.5086083698008701,0.0248686238691803,0.7289728288836353,0.0368130626541024,0.2886770714504864,0.7750249696274032,0.5677258045692605,0.7162757882878926,0.5654448319491598,1
3338,0,0,0,0.0530420879208844,0.0052060346923733,0.0302551409226831,0.2245645317265275,0.5000000000000002,0.0,0.4211266035348156,0.016611081398244,0.1763316120226183,0.6800621740763357,0.5681818213585486,0.6948371563904733,0.5764731489681598,2
1373,1,0,0,0.0151169764892634,0.0012511713416971,0.0133020336698435,0.1333333333333333,0.576923076923077,0.0,0.682706468788943,0.0260673263650312,0.1672489407567085,0.7750249696274032,0.5221398079610486,0.7340999530527784,0.5681507170771332,0
1456,0,0,0,0.0,0.0,0.0140845062386578,0.1666666666666666,0.4768197583614587,0.1111111111111111,0.6895604395604396,0.0408074742771581,0.1852374934958745,0.7750249696274032,0.6136363922269371,0.6826922920553692,0.5716931049971267,0
2805,0,0,0,0.1278946846511156,0.1840481174305216,0.1157445071453017,0.05043451356158,0.4615384615384616,0.0,0.7065696172230403,0.0501357912492222,0.2298788407724008,0.7750249696274032,0.70019678272507,0.7406352984165134,0.5605997171464298,1
1971,0,0,0,0.0159144889571878,0.0039070322872886,0.029433354640564,0.4309791996375861,0.5027163081104775,0.0078471123191571,0.7286357876463243,0.0366033147446974,0.2877924916536399,0.7750249696274032,0.5438494812826714,0.7088221418630094,0.5805882367151621,1
1231,0,0,0,0.053400228637398,0.0006255856708485,0.035993738165459,0.4666666666666667,0.9230769230769234,0.1111111111111111,0.5906593406593407,0.0186080486600255,0.1763316120226183,0.954243880118966,0.5681818213585486,0.7211538225562845,0.5649303644225937,0
2527,0,0,0,0.0019737361667111,0.0,0.0382250512482477,0.4824830890607481,0.4748121499953233,0.0965136853284012,0.8480986231224644,0.1907120187253335,0.6013280446895097,0.7750249696274032,0.6471475473436781,0.7269794851783298,0.5681408690422892,1
3797,0,0,0,0.0244120355641661,0.0046962599682536,0.0174752207035199,0.013568304952169,0.4449528984209663,0.1111111111111111,0.463968653249398,0.0317964368847768,0.1763316120226183,0.7495678430075381,0.5404284974748144,0.725067752858101,0.5634731942593543,2
1657,0,0,0,0.0,0.0,0.0239958254436393,0.2333333333333333,0.4768197583614587,0.2222222222222222,0.4972527472527472,0.0408074742771581,0.1763316120226183,0.8033401967513155,0.5681818213585486,0.7115384473230629,0.565654943769865,0
3694,0,0,0,0.0971874092443585,0.0054909850657315,0.0222779484355366,0.0757954984137472,0.4731209966295364,0.1111111111111111,0.3241758241758242,0.0075008555446912,0.1763316120226183,0.5258731060662243,0.6370868054695888,0.6777316241238461,0.5734084864117405,2
3671,0,0,0,0.0046116041043348,0.0005028182617763,0.0379808265426721,0.5166418943729932,0.468205411643212,0.0,0.4821408154703017,0.0388612260033868,0.1763316120226183,0.7789260083562302,0.571026950215745,0.7115384473230629,0.56407488345918,2
3421,0,0,0,0.061659244105583,0.0134736892545971,0.0188578571716607,0.2309633181879414,0.4821365471992646,0.1111111111111111,0.2113888083777331,0.0119381150787378,0.1763316120226183,0.6444327358474118,0.580353424236036,0.7160043278161501,0.5659750938237168,2
1061,0,0,0,0.0,0.0,0.0292123092357348,0.3,0.4641411220358589,0.0,0.5412087912087913,0.0408074742771581,0.2068683565004087,0.8743536948066803,0.5681818213585486,0.7019230720898414,0.5578455885826068,0
538,0,0,0,0.0076620984308941,0.0122596689328596,0.0928534114993,0.6666666666666666,0.4615384615384616,0.0,0.6703296703296704,0.0617410638560884,0.1347654798186277,0.7750249696274032,0.5675943089413686,0.7052537977850847,0.5657354525862286,0
720,1,0,0,0.0,0.0,0.0200834625995676,0.0,0.4598236158745714,0.3333333333333333,0.4917582417582418,0.0408074742771581,0.1763316120226183,0.7944635094943949,0.5675943089413686,0.7148691730183062,0.5680702082607697,0
3784,0,0,0,0.1088231788113777,0.0137693994573118,0.0300360571404364,0.3905274988227363,0.5659932678723881,0.0,0.2554649045253445,0.0085189433049477,0.1763316120226183,0.412718135391483,0.6069329643437587,0.7267223462057825,0.5767035174627626,2
3426,0,0,0,0.2282850409526273,0.0101573250626289,0.0271239838924914,0.2583443997046938,0.4134743073515698,0.6666666666666665,0.2253039113090825,0.003996492876986,0.1763316120226183,0.4149645003903352,0.6305728558194538,0.7075687197976257,0.5718783019699081,2
3553,0,0,0,0.0161527882431862,0.0004023620770017,0.0201457190918677,0.1949246093673133,0.4615054524787625,0.2222222222222222,0.4385146859960124,0.0423522684194529,0.1763316120226183,0.8302077705769562,0.5227272558107987,0.7293051715448419,0.5704609559301291,2
3730,0,0,0,0.0283167086643884,0.0157431809900607,0.0228593563192428,0.1484135874615421,0.5047069696261897,0.2222222222222222,0.357927346859677,0.0303914978619905,0.1763316120226183,0.5782520596166313,0.5575781226471931,0.7378584163413048,0.5674775407974415,2
1967,0,0,0,0.0071440180509264,0.0004597694774024,0.0346896172174351,0.3666666666666666,0.6153846153846154,0.1111111111111111,0.6062365469581965,0.1204001073484312,0.1763316120226183,0.9794097460535348,0.5681818213585486,0.7115384473230629,0.5682312258934967,0
3605,0,0,0,0.0994598268894012,0.013366098192443,0.0335749238215596,0.2265496274228161,0.5000000000000002,0.2222222222222222,0.2145203102903372,0.009875373166115,0.1763316120226183,0.3447633011819728,0.5423710711987905,0.7108861685450485,0.5731293509255722,2
2471,0,0,0,0.0020963692589124,0.0,0.0311925077916118,0.3897490272009321,0.5384615384615385,0.1111111111111111,0.7417362964678972,0.0395930034112281,0.3073928702435587,0.775197715469374,0.5273868489096734,0.6720912708284696,0.5706634278480623,1
2131,0,0,1,0.1337049925565612,0.0371206263513458,0.0074059935787124,0.0,0.4615384615384616,0.2837790907489623,0.830676903573372,0.0035076818870139,0.5556039627866363,0.7750249696274032,0.2374088101121429,0.7023138158493654,0.796603194897703,1
812,0,0,0,0.0409009136867465,0.0,0.0164319239451008,0.2333333333333333,0.5000000000000002,0.0,0.717032967032967,0.0125353229453683,0.2573403701776555,0.7750249696274032,0.5675943089413686,0.7148691730183062,0.5653329085044111,1
2281,0,0,1,0.2013423344608882,0.2603345265242152,0.1144689724376552,0.2759350735373315,0.4476548501176913,0.4845526552155585,0.7273918753870368,0.0282219671008711,0.2116514704583648,0.7750249696274032,0.6199556844766981,0.7489210692186997,0.5587051792208438,1
1896,1,1,1,0.0,0.0,0.023213352874825,0.2333333333333333,0.4615384615384616,0.2222222222222222,0.5637532570522261,0.0408074742771581,0.1763316120226183,0.9107755662319836,0.90909099803936,0.7403846025907567,0.5636422233607778,0
2781,0,0,1,0.1079496639002848,0.0318903644192497,0.0207669975486144,0.0201149531127125,0.4707599386113425,0.0440612674020691,0.7938139315914268,0.0103092480906596,0.3959519508589872,0.7985736326345756,0.5003918996877311,0.7151856637505061,0.5988014130670674,1
2899,0,0,0,0.0,0.0,0.0210923746061131,0.2177652595517111,0.5204983764058206,0.0,0.7278408912826849,0.0408074742771581,0.2857062506064848,0.7750249696274032,0.5466782575097471,0.7086032506920964,0.5707530796022133,1
2750,0,0,1,0.0377133336146133,0.0072779047512715,0.0201179749687395,0.2666666666666666,0.4768197583614587,0.0730939227336706,0.7964124825693308,0.0169370443825564,0.4656754578575733,0.7750249696274032,0.5989002948607264,0.729924845951951,0.5610892459731299,1
3778,0,0,0,0.0336097130134616,0.0036645768140301,0.0307948033821211,0.4116848872511078,0.4968148992937612,0.0,0.4734905126855309,0.0266230723956277,0.1763316120226183,0.7649509504415797,0.5889173316524196,0.7115384473230629,0.5637580097937137,2
3491,0,0,0,0.2320826884831178,0.0097341850181183,0.0320114460032589,0.3994042021755529,0.5006874590282083,0.0,0.3339863339736211,0.0036622752451053,0.1763316120226183,0.5395739867280079,0.659903345240294,0.7017512075004855,0.5716919688120722,2
952,0,0,0,0.0,0.0,0.0127803852906339,0.0666666666666666,0.4615384615384616,0.0,0.5274725274725275,0.0408074742771581,0.1763316120226183,0.8521619766643789,0.5448670584512086,0.7052537977850847,0.576040581080755,0
2677,0,0,0,0.0020830837704655,0.0066377259127024,0.0227790255338479,0.2254649845551178,0.4615384615384616,0.6404388374059483,0.6955926271575874,0.0411346716900538,0.2010692395510367,0.7750249696274032,0.5623682135108723,0.711813239895612,0.568128607416379,1
985,0,0,1,0.0,0.0,0.0299947818045491,0.4,0.5000000000000001,0.2222222222222222,0.5631868131868132,0.0408074742771581,0.1763316120226183,0.9098604438343628,0.5675943089413686,0.7148691730183062,0.5634006969116874,0
1962,1,0,0,0.0128156229593615,0.0016576945542534,0.0326030237005969,0.4333333333333333,0.4768197583614587,0.2222222222222222,0.3839073297836185,0.0809373671764073,0.2527317326990262,0.6762754518416838,0.6818181436974171,0.7307692273575351,0.5771677045098438,2
2715,1,0,1,0.054410436619752,0.0047759735514917,0.0234274988807702,0.1759413291877,0.5491630721396539,0.0801955693743332,0.8074799022502868,0.0248168734508425,0.494722395648043,0.7750249696274032,0.7240163925190729,0.7249153784927693,0.5253924784484842,1
1536,0,0,0,0.0266401372236669,0.0033863604929683,0.0242566496332441,0.0666666666666666,0.5,0.0,0.5741758241758242,0.0283476638894325,0.1763316120226183,0.8011210249370854,0.5909090718487086,0.7019230720898414,0.585299094962556,0
764,0,0,0,0.0022722582582692,0.0,0.0386019800615067,0.5,0.4768197583614587,0.1111111111111111,0.8434065934065934,0.2133846630723757,0.5890136029138482,0.7750249696274032,0.6590908932072571,0.730769197789506,0.5700024198534934,1
3722,0,0,0,0.0318164811446485,0.0051291003830215,0.023550061118668,0.1903020173150305,0.5111899800211186,0.1111111111111111,0.4392774215965808,0.0340011496394613,0.1763316120226183,0.7096777488781549,0.5196659026863464,0.7097099946510504,0.5740217636800105,2
3586,0,0,0,0.0190576600143275,0.0173001929258779,0.0237350012540345,0.1995742752188777,0.5,0.1111111111111111,0.4121580865023828,0.0827140685530088,0.1763316120226183,0.6658649150412324,0.5675980607202968,0.7147865008785439,0.5685015430050959,2
2387,1,0,0,0.0,0.0,0.0166927481347056,0.1333333333333333,0.5384615384615385,0.5555555555555556,0.7142857142857143,0.088886869397465,0.2501300825094774,0.7750249696274032,0.5454545708683886,0.7019230720898414,0.5669430848316809,1
527,0,0,1,0.0408463747767632,0.0076029885330677,0.0354720897862494,0.5333333333333333,0.4230769230769231,0.2222222222222222,0.804945054945055,0.011504295778018,0.4880695755593547,0.7750249696274032,0.5227273203782287,0.7115384473230629,0.5716931049971267,1
8,0,0,0,0.3889403984047743,0.0111367825746128,0.0349504414070398,0.4666666666666667,0.5000000000000001,0.0,0.2802197802197803,0.0022011708854584,0.1763316120226183,0.4438343628460307,0.6818181436974171,0.6826923216233983,0.5828996746067118,2
1467,0,0,0,0.0,0.0,0.0148669788074721,0.0,0.4615384615384616,0.2222222222222222,0.5082417582417582,0.0408074742771581,0.1023191853118263,0.8210935712651567,0.5909090718487086,0.730769197789506,0.5736253165898504,0
1660,0,0,0,0.0168511783629184,0.0030211137685991,0.026604067339687,0.3333333333333333,0.5000000000000001,0.1111111111111111,0.554945054945055,0.0408074742771581,0.2789712331821898,0.8965454129489819,0.6136363223388684,0.7019230720898414,0.565654943769865,0
871,0,0,0,0.1690570941992695,0.2432832921127852,0.1280646852467006,0.0666666666666666,0.4615384615384616,0.0,0.7005494505494505,0.0531380739840094,0.2140786441685868,0.7750249696274032,0.7499999650559657,0.7500000073920073,0.5589727120116956,1
196,0,0,0,0.0,0.0,0.0250391222020584,0.3333333333333333,0.5384615384615385,0.0,0.576923076923077,0.0408074742771581,0.1763316120226183,0.8610386639212995,0.5681818213585486,0.7019230720898414,0.5714989901899926,0
839,0,0,0,0.0,0.0,0.0096504950153766,0.1333333333333333,0.5,0.1111111111111111,0.6153846153846154,0.0408074742771581,0.1763316120226183,0.825531914893617,0.5909090718487086,0.7019230720898414,0.5674261377298618,0
1623,0,0,0,0.006135136562201,0.0195495522140183,0.0195618142203581,0.0,0.451923076923077,0.0,0.7005494505494505,0.0383126958083166,0.2140786441685868,0.7750249696274032,0.6130488099216885,0.7052537977850847,0.5716931049971267,1
229,0,0,1,0.060151607764562,0.1916725055470604,0.0419926945263688,0.0,0.4615384615384616,0.0,0.576923076923077,0.0408074742771581,0.1763316120226183,0.9320521619766644,0.4772726796217713,0.8076922883593656,0.6109256469762954,0
1611,0,0,1,0.1585319287672754,0.4474258927295521,0.2597809009971121,0.6666666666666666,0.4615384615384616,0.0,0.7005494505494505,0.02995310452813,0.2140786441685868,0.9941889727751086,0.5681818213585486,0.7019230720898414,0.5755575281825741,0
2104,0,0,0,0.0102913836213231,0.0025265510062905,0.032334395942346,0.459933513591342,0.5,0.0,0.7313104618450835,0.0380887807224867,0.2948122936762215,0.7750249696274032,0.5545228052654961,0.7077018866062816,0.5777242373589162,1
70,0,0,1,0.5065168843915382,0.0086411611629706,0.0133020336698435,0.1666666666666666,0.4615384615384616,0.1111111111111111,0.5659340659340659,0.0004352713058875,0.1763316120226183,0.7308472508197972,0.7954546058124229,0.7307692273575351,0.574440307337898,0
184,0,0,0,0.5630964585900909,0.0014616385684593,0.0177360448931247,0.1,0.5384615384615385,0.0,0.5659340659340659,0.0006621582329942,0.1763316120226183,0.9142987874628232,0.4545454291316113,0.6730769463901768,0.5716482857390571,0
3894,0,0,0,0.3944235412868316,0.0097533068984799,0.0322112664863195,0.439738468601958,0.5621419955339431,0.0213504508954157,0.345722750442788,0.0019696014519273,0.1763316120226183,0.7091257488035986,0.6459894795473758,0.6904600578041821,0.5804933269162021,2
1288,0,0,1,0.118449039832968,0.1681262164055062,0.3090766728324147,0.0333333333333333,0.4807692307692308,0.0,0.4759544579132208,0.0320266418101537,0.1763316120226183,0.7689315946007779,0.5454545009803199,0.7307692273575351,0.5609049236044192,2
3091,0,0,1,0.1258249937416312,0.0304393138643046,0.0871641187761005,0.6067458054011068,0.4801015719002686,0.2944774189171278,0.8151571776778591,0.0156917171816311,0.3273186769392511,0.7750249696274032,0.5534023637680404,0.8620791482513166,0.8195922461245171,1
179,0,0,1,0.0,0.0,0.0344287930278303,0.6333333333333333,0.5384615384615385,0.0,0.532967032967033,0.0408074742771581,0.1491860551549839,0.5769846716998399,0.6136363922269371,0.7211538521243136,0.5726158809485217,0
978,0,0,0,0.0062714642047224,0.0017377518764832,0.0349504414070398,0.4333333333333333,0.5,0.2222222222222222,0.5054945054945055,0.0408074742771581,0.1763316120226183,0.854381148478609,0.5664192841070087,0.7019230720898414,0.5643668027080493,0
366,0,0,1,0.1780280381237975,0.3417370823821344,0.2782994103082953,0.0,0.4230769230769231,0.0,0.3104395604395605,0.0089873205349853,0.1763316120226183,0.5015328300160147,0.5675943089413686,0.7052537977850847,0.5640962447797782,2
862,0,0,0,0.0,0.0,0.0315597269421778,0.0333333333333333,0.5000000000000001,0.2222222222222222,0.6895604395604396,0.0408074742771581,0.1852374934958745,0.7750249696274032,0.5681818213585486,0.7019230720898414,0.5675066465462253,0
2066,0,0,0,0.0039335282842832,0.0125341491259853,0.0204041906209221,0.0,0.455373580453026,0.0,0.7015353087008646,0.0392079529672871,0.2166660729658905,0.7750249696274032,0.6132596652228017,0.7075090591482744,0.5719242312317318,1
3550,0,0,0,0.0588466827088795,0.0094774690567755,0.0288041862834023,0.0,0.4627769528201271,0.3243281982324835,0.3497917166583258,0.0193417985569758,0.1763316120226183,0.5651084846383971,0.5681818213585486,0.7027023618670262,0.5747411843173451,2
3720,0,0,0,0.1054565720169954,0.0166842368657257,0.0344559037637125,0.0121266328520102,0.0199889552505663,0.6666666666666665,0.1605911976435198,0.0252307961187355,0.1763316120226183,0.2594442464606451,0.5676248427158507,0.8980087226950084,0.569839382156243,2
2404,0,0,0,0.1164439077180758,0.3040847934727366,0.1447716855903003,0.0081692758246413,0.4277899668219085,0.0,0.7246555182041314,0.0775672014494336,0.2773460965399144,0.7750249696274032,0.5899461406929909,0.7191740751575345,0.5666728355763622,1
3644,0,0,1,0.1270490949803203,0.0531724411567342,0.0624190759574753,0.1935738935370539,0.4860360925803666,0.1338679115638235,0.1469610397787116,0.0081396195865598,0.1763316120226183,0.2374239484102837,0.5728366168967389,0.7114228170039807,0.5741469671743794,2
2503,0,0,0,0.0,0.0,0.0208629546123158,0.2360793681871947,0.547967043724905,0.0,0.7257273683825046,0.0408074742771581,0.2801592152567809,0.7750249696274032,0.5681818213585486,0.713122699090311,0.5713614849734607,1
1558,0,0,0,0.1065877790847854,0.3396409079844007,0.285602487617229,0.1333333333333333,0.4615384615384616,0.0,0.695054945054945,0.0408074742771581,0.1131346168140934,0.7750249696274032,0.6363636427170971,0.7115384473230629,0.5716931049971267,0
2186,0,0,1,0.0139410109589567,0.0198421255545943,0.0313676891369262,0.3942994312763688,0.5483279074062849,0.0,0.7881370187171606,0.0339266113630562,0.4439561329714934,0.7750249696274032,0.5869720869255066,0.739847211441829,0.5746488150223084,1
1116,0,0,0,0.0,0.0,0.0119979127218196,0.1999999999999999,0.5384615384615384,0.2222222222222222,0.5851648351648352,0.0408074742771581,0.1763316120226183,0.9453671928620452,0.5000000698880687,0.7115384473230629,0.5703244551189474,0
93,0,0,0,0.0058351921897296,0.0093950345495765,0.0273865399085014,0.0,0.4615384615384616,0.5555555555555556,0.6648351648351648,0.0394936765136273,0.3222329591912584,0.7750249696274032,0.6363636427170971,0.7019230720898414,0.5727469412506798,1
3539,0,0,0,0.4224624386194001,0.0032474404333317,0.0377564511453337,0.2911302996459506,0.4615384615384616,0.0,0.4980506153068023,0.0020438001125849,0.0677036533786396,0.5388279212085709,0.5939328334739268,0.7352674675189401,0.4750905038396829,2
3249,0,0,0,0.2031652874779813,0.01024409517775,0.0435751243500233,0.5579267473112177,0.5000000000000001,0.2936312724002133,0.1847862570897348,0.0036421535831441,0.1763316120226183,0.298532746068376,0.5784645275733431,0.6957434325869731,0.5918540448788259,2
2500,0,0,0,0.0077835959209721,0.0017828376220606,0.0259150940847868,0.3393079398333239,0.5226776575961485,0.6666666666666665,0.6894891421531584,0.0696789986612492,0.1850503702626712,0.7750249696274032,0.5499974337141417,0.704579488381282,0.5667492233613376,1
351,0,0,0,0.0262038553924557,0.0041387784540883,0.0271257157188966,0.1999999999999999,0.4768197583614587,1.0,0.532967032967033,0.0408074742771581,0.1763316120226183,0.8610386639212995,0.5681818213585486,0.730769197789506,0.5657501534960966,0
2962,0,0,0,0.1012205870074499,0.2035696285824773,0.0571520213906746,0.0,0.4431342556029412,0.0,0.7486996404199348,0.0282104116339006,0.3404509703372524,0.7750249696274032,0.5675943089413686,0.7282407355476916,0.4739265988665144,1
3865,0,0,1,0.1511814799775441,0.2472734619311211,0.1575259365197429,0.1117487052864146,0.4937736649864658,0.1650726812284076,0.3473868189264794,0.0110805552015523,0.117322191741074,0.5989444836478213,0.4878179407720363,0.6885969934418978,0.5528523890066241,2
2646,0,0,1,0.0136836719234135,0.0033580635194302,0.0263515131624049,0.2456467104791149,0.5071038714302587,0.4692165571355459,0.7118357251184625,0.02863890287023,0.2451696120973683,0.757619797730975,0.5678338081851794,0.7095916992288204,0.5589311008668981,1
1361,1,0,1,0.0229045065601444,0.0508308406387825,0.1504955737034672,0.2333333333333333,0.4615384615384616,0.0,0.5552565990710321,0.1144687828287785,0.0743328625585371,0.8970487302676733,0.6136363223388684,0.7115384473230629,0.5617100117680541,0
3286,0,0,0,0.050338712380621,0.0074611787870014,0.0290533005803503,0.3712738126328827,0.5,0.2222222222222222,0.3422674639094521,0.0192055653716644,0.1763316120226183,0.5590870539158922,0.5580195021186594,0.7168543838761166,0.6067070785104678,2
240,0,0,1,0.2831433648012177,0.4511167712498621,0.7044861524240098,0.4333333333333333,0.4615384615384616,0.0,0.6474155998640535,0.0408074742771581,0.0746264773656433,0.7750249696274032,0.5675943089413686,0.6956384225518631,0.5726753689129327,0
2095,0,0,1,0.1060464169054447,0.0048771440680615,0.0289489823416058,0.2666666666666666,0.4721828162614131,0.050093263489348,0.7910967941907843,0.0082893001368027,0.4517241960371819,0.8295723947844813,0.542955125298831,0.706814301643696,0.5550602154339008,1
544,0,0,0,0.0159513452455042,0.0013792847869873,0.0203442867891724,0.2333333333333333,0.730769230769231,0.1111111111111111,0.5494505494505495,0.0412843222308397,0.1763316120226183,0.8876687256920613,0.4090908582632228,0.7019230720898414,0.5539006565807959,0
2860,0,0,0,0.0028956511578723,0.0,0.0162165174656211,0.0333333333333333,0.4747231197784141,0.1416006494348381,0.7248977941690747,0.0406759581187594,0.2779819606423618,0.7750249696274032,0.5681012129379318,0.7023800573891307,0.5716931049971267,1
1074,0,0,0,0.0471723877076875,0.0022988000966331,0.0273865399085014,0.2333333333333333,0.4750000000000001,0.1111111111111111,0.5631868131868132,0.0155771136750199,0.1763316120226183,0.9098604438343628,0.5221398079610486,0.7052537977850847,0.5688752964244046,0
298,0,0,0,0.082019953564771,0.008954422567508,0.0399061010095306,0.1999999999999999,0.4615384615384616,0.8888888888888888,0.3873626373626374,0.0148056867711758,0.1763316120226183,0.6280256234271334,0.5675943089413686,0.7052537977850847,0.5712905609153092,0
705,0,0,0,0.0,0.0,0.0091288466361671,0.0,0.4423076923076924,0.0,0.5384615384615385,0.0408074742771581,0.1763316120226183,0.86991535117822,0.6363635728290284,0.7115384473230629,0.5685532611589507,0
410,0,0,1,0.0314664381084527,0.0022839783077042,0.0292123092357348,0.2333333333333333,0.4615384615384616,0.2222222222222222,0.4945054945054945,0.0245903060221532,0.1763316120226183,0.6568748570121254,0.5454545708683886,0.6634615415889261,0.5264471502008465,0
3747,1,0,0,0.0131808682018536,0.0044647687498653,0.0216578197530748,0.1835137616880194,0.5577617032133408,0.1664661907170154,0.3519124193879811,0.0511987807177077,0.1763316120226183,0.5685346009494778,0.5910730974652076,0.7019230720898414,0.5657610356604034,2
3325,0,0,0,0.0411270166115966,0.0029715529654313,0.0196576069657511,0.1999999999999999,0.4351281758611431,0.1490908168553195,0.4305194691167291,0.0218597053561338,0.1763316120226183,0.8293246720561306,0.5526446603217525,0.7117831884901102,0.5652395116610611,2
1945,0,0,0,0.003108472463588,0.0010852211912192,0.0114762643426101,0.0666666666666666,0.4768197583614587,0.2222222222222222,0.4532967032967033,0.2046596303225206,0.1763316120226183,0.7323266986959507,0.6136363922269371,0.7019230720898414,0.5755575281825741,0
461,0,0,0,0.008998203563301,0.0018246345549954,0.0341679688382255,0.2666666666666666,0.4615384615384616,0.4444444444444445,0.5164835164835165,0.0408074742771581,0.1763316120226183,0.8344086021505377,0.5681818213585486,0.7115384473230629,0.559858308991694,0
1128,0,0,1,0.3130283021309941,0.4557223911534166,0.297078760110595,0.0,0.4615384615384616,0.3333333333333333,0.4038461538461538,0.026606988799409,0.1763316120226183,0.652436513383665,0.4772726796217713,0.6667922672841694,0.5478624953535343,2
857,0,0,0,0.1590590989655737,0.253420125926798,0.2634324559530908,0.0,0.4230769230769231,0.0,0.6401098901098902,0.0408074742771581,0.0554523154686686,0.7500800732097919,0.8863636776611316,0.7115384473230629,0.556557447520791,0
1991,0,0,1,0.057265095956302,0.0031249576676167,0.0372317402122237,0.4666666666666667,0.5024374988643373,0.0,0.6991950542961047,0.0159533131646847,0.2105239706449763,0.868058739781346,0.6953531434098018,0.740457371162088,0.5610834414203384,1
3061,1,0,0,0.0017431704962237,0.0,0.0263348476749287,0.3978172310425492,0.4950603690010428,0.2932544268037905,0.7203548656484146,0.191040180579297,0.2660588416200267,0.7936337418748161,0.5825859397023676,0.7067308462609786,0.5612358952716161,1
1391,0,0,1,0.0347494134883068,0.0032506384991904,0.0349504414070398,0.4666666666666667,0.5000000000000001,0.0,0.6798742494618784,0.0241110390016348,0.1598156545008547,0.7750249696274032,0.5903215594315285,0.7052537977850847,0.5649303644225937,0
2812,1,0,0,0.0071497307331155,0.0032546495063106,0.0297447537572553,0.3495482288186328,0.5285855166261344,0.0,0.7392356989738217,0.0478864318636302,0.3156124328675905,0.7750249696274032,0.5559226581921937,0.7052537977850847,0.5657082329273373,1
2965,0,0,0,0.054422340074291,0.0,0.0224677383060928,0.2608825161671164,0.5,0.0,0.6579990038177177,0.0107192234960688,0.1679534802129911,0.7750249696274032,0.5492963581794308,0.7200633062305978,0.5621390574779211,1
2987,0,0,1,0.0183728325646801,0.0018451380534822,0.0326654245504344,0.4344725946282259,0.4986854677366623,0.0,0.7250869349513913,0.0435300905759068,0.1914301738545636,0.7750249696274032,0.5676143888460835,0.7051399607790299,0.5697106523789051,1
3169,0,0,0,0.0445845977449819,0.0088335699127544,0.0427952389550288,0.537344525092435,0.463852610630251,0.8955742084873917,0.4563745487713546,0.0130601101582886,0.1763316120226183,0.6194346092082734,0.6108661378512329,0.7015449362942622,0.5808156934887548,2
120,0,0,0,0.0799203822223453,0.0687912228377394,0.0785080810710373,0.2666666666666666,0.5769230769230771,0.0,0.3791208791208791,0.0117247095705208,0.1763316120226183,0.6124914207275223,0.5681818213585486,0.7148692025863354,0.5710532772808411,2
1006,0,0,0,0.0,0.0,0.0213875835475915,0.1333333333333333,0.5,0.0,0.6071428571428572,0.1199346085690424,0.1763316120226183,0.9808739418897278,0.5909090718487086,0.7019230720898414,0.5614684853189638,0
3630,0,0,0,0.0282585490689016,0.0029787811085969,0.0282069276416474,0.338787460706389,0.5283754748565069,0.0,0.4382118915835852,0.0334008476924223,0.1763316120226183,0.719575824228904,0.5681818213585486,0.7276225889138032,0.5608199496843239,2
3453,0,0,0,0.1089458048241458,0.0151287267427771,0.0272436500337631,0.2101237074707286,0.5803410126013239,0.2222222222222222,0.1790194802474495,0.0078014342451429,0.1763316120226183,0.2892161889076618,0.5296298414455193,0.7383187999018317,0.5822611417722057,2
1432,0,0,0,0.0248132211662839,0.0017312118963642,0.0255607705812679,0.1,0.4230769230769232,0.0,0.543956043956044,0.0304917695088469,0.1763316120226183,0.8787920384351406,0.6130488099216885,0.7533307330872505,0.5774897397752977,0
1075,0,0,0,0.0354474546020263,0.0022988060079305,0.0182576932723342,0.2333333333333333,0.5384615384615385,0.2222222222222222,0.5741758241758242,0.0165459342732931,0.1763316120226183,0.927613818348204,0.5221398079610486,0.7052537977850847,0.5564769387044275,0
1187,0,0,0,0.0422642784579266,0.009071248723133,0.0252999463916632,0.2666666666666666,0.4768197583614587,0.2222222222222222,0.3241758241758242,0.0206370021618698,0.1763316120226183,0.5237245481583163,0.5675943089413686,0.7148691730183062,0.5741888783043948,2
1313,1,0,0,0.0595517190196193,0.0012039281454834,0.0263432431500823,0.3333333333333333,0.5000000000000001,0.2222222222222222,0.5368471734451117,0.0124688190836515,0.1763316120226183,0.7780828185769847,0.5681818213585486,0.7403846025907567,0.5351421023681032,0
2303,1,0,0,0.3084295720664956,0.2814862153423042,0.244669666634054,0.2546283103248444,0.3915605901972052,0.0,0.7810262641727814,0.0115096131583582,0.4252936397392823,0.7750249696274032,0.5307231020653429,0.6817584206677437,0.6179306635444897,1
3719,0,0,0,0.0265145346700253,0.0063051282856884,0.0111757607826765,0.0645404082081229,0.4590850863939881,0.2222222222222222,0.3856722585054706,0.0212159614875755,0.1763316120226183,0.6394960423676118,0.5681818213585486,0.7127651336983655,0.5725960212231086,2
17,0,0,0,0.0353929156920429,0.0060353511161319,0.0302556059941539,0.2666666666666666,0.4230769230769232,1.0,0.4010989010989011,0.0922135354173201,0.1763316120226183,0.5947380462136811,0.5681818213585486,0.7115384473230629,0.6101833959438322,0
2024,1,0,0,0.0069729328703728,0.0081034360319882,0.0149888370384505,0.0727800186842807,0.433322990687935,0.0,0.7855442979556139,0.044714236623206,0.4371514214091141,0.7750249696274032,0.57593070271721,0.7340999530527784,0.5440273805274197,1
1941,0,0,0,0.0197960439127749,0.0003009820367772,0.0365153865446685,0.4,0.6153846153846155,0.0,0.6600487141724255,0.0473127295269722,0.1077826507098788,0.7750249696274032,0.52272725049016,0.8076923179273947,0.5739473518553043,0
211,0,0,0,0.0203413937477343,0.0047787863810452,0.0213875835475915,0.1999999999999999,0.4768197583614587,0.3333333333333333,0.6428571428571429,0.0289061896000076,0.0482420278004906,0.7750249696274032,0.5681818213585486,0.7115384473230629,0.5737066465961408,0
1192,0,0,0,0.0024540546248804,0.0078198208856073,0.0096504950153766,0.1,0.5384615384615385,0.2222222222222222,0.4038461538461538,0.0408074742771581,0.1763316120226183,0.652436513383665,0.5681818213585486,0.6634615415889261,0.5875533418207337,0
3654,0,0,1,0.1086822659388208,0.0328749550822487,0.0370991005298873,0.2107263749732728,0.4747469765156674,0.2071509166488485,0.1832255226573457,0.0088463786949127,0.1763316120226183,0.2960112905049445,0.5939918453612668,0.7105671614504157,0.5730373569608301,2
270,0,0,0,0.0929268619179931,0.0133963584675841,0.0396452768199258,0.1,0.5000000000000001,0.1111111111111111,0.2774725274725275,0.0135039838500244,0.1763316120226183,0.448272706474491,0.5681818213585486,0.7019230720898414,0.5728202284262155,2
1222,0,0,0,0.0040900943135402,0.0068964357572125,0.0182576932723342,0.1,0.4625331564986738,0.8888888888888888,0.4505494505494506,0.0408074742771581,0.1763316120226183,0.7278883550674903,0.5681818213585486,0.6923076968566199,0.5704049639353108,0
3335,0,0,0,0.0856248667388383,0.0070917879763457,0.0292741560326517,0.2982817768987385,0.5729579466893968,0.0,0.2900758968563111,0.0104633727194432,0.1763316120226183,0.7208266322616244,0.5716963651723799,0.7110428065274724,0.5871043172094468,2
2366,0,0,1,0.2592849303486753,0.4116568082694382,0.1614240865917236,0.2949961183950225,0.4615384615384616,0.4222049706445446,0.6773363378476581,0.0401624866654884,0.1531547919962171,0.7750249696274032,0.6318145940026514,0.7216349941168583,0.5719831617384993,1
2073,0,0,1,0.3295197702858505,0.5006358860007977,0.2202719878078464,0.0833216410467758,0.4391003155859185,0.0,0.7397011749727707,0.0295699161043956,0.3168340954388305,0.8562761721783386,0.5852312452290493,0.7083310860491543,0.5700707442418957,1
1298,0,0,0,0.0210067075889764,0.0034831136040478,0.0146061546178674,0.1666666666666666,0.4768197583614587,0.0,0.682706468788943,0.0159815113758724,0.1672489407567085,0.7750249696274032,0.5221398079610486,0.7052537977850847,0.549633689313531,0
1795,1,0,0,0.0002181360074963,0.0006950882388798,0.0198226384099629,0.1,0.4768197583614587,1.0,0.456128922623768,0.0408074742771581,0.0,0.868451155342027,0.5681818213585486,0.7211538521243136,0.5638032409935049,0
3082,0,0,1,0.273730877697143,0.8266002437028197,0.8331630275683013,0.6101386559694645,0.493477537227246,0.0,0.7260216490128765,0.0399546609319306,0.2809315679288369,0.7868342774240644,0.5928362251990656,0.7187079284639956,0.5799481903577215,1
2697,0,0,0,0.0238199951861863,0.0069002049559852,0.0376584423923071,0.5,0.5305445688447398,0.0882398655514701,0.7144461870889223,0.0323676987748093,0.2505512505564309,0.7750249696274032,0.6042799128554619,0.7019230720898414,0.5695073849917334,1
432,0,0,0,0.011861270564401,0.0031097752544853,0.0310380785629682,0.3666666666666666,0.5384615384615385,0.2222222222222222,0.695054945054945,0.0548612652511769,0.1960529249981417,0.7750249696274032,0.5681818213585486,0.7019230720898414,0.5657354525862286,0
2865,0,0,1,0.0139504233142628,0.0054315181163268,0.0218345069903813,0.2678490060147968,0.4464266936957224,0.0,0.7087912087912088,0.0393407979216202,0.2357095071731212,0.7750249696274032,0.590102917203638,0.7266502236554808,0.5729477126712623,1
802,0,0,0,0.029993995517306,0.0086886968238489,0.0378195074926924,0.5,0.5384615384615385,0.1111111111111111,0.7087912087912088,0.0301801594265102,0.2357095071731212,0.7750249696274032,0.6136363223388684,0.7019230720898414,0.5687947876080411,1
3861,0,0,1,0.138210618771512,0.0114426606237249,0.0283515866644421,0.2185416593565143,0.4683195403549248,0.2840277534106032,0.3069196940683751,0.0085267609113956,0.1763316120226183,0.6604347963088522,0.5957620133834899,0.8359731637787475,0.5738619987559985,2
2071,0,0,1,0.3005244896165734,0.4569389162077844,0.2409567668611886,0.0060532572267141,0.4230769230769231,0.0,0.7532594723823353,0.032254414165372,0.3491450237531517,0.8890069801336933,0.609509118232195,0.7167535409741542,0.5660294593820137,1
2130,0,0,0,0.0026205788269293,0.0083504486148923,0.023647421459388,0.2281427089959273,0.4630357570204056,0.6796432275101815,0.6792131266351189,0.0406463280229892,0.1580805080824185,0.7750249696274032,0.5676171806132522,0.7151138324296354,0.5693675574864503,1
798,0,0,0,0.0163603772541608,0.0,0.0164319239451008,0.0666666666666666,0.5,0.1111111111111111,0.5384615384615385,0.0301801319753682,0.1763316120226183,0.86991535117822,0.5664192841070087,0.7115384473230629,0.5693583493225856,0
325,0,0,0,0.0232044509326158,0.0012799180440294,0.0362545623550637,0.4666666666666667,0.576923076923077,0.1111111111111111,0.6538461538461539,0.0379962388847216,0.0915037538095592,0.9986273164035688,0.5681818213585486,0.7019230720898414,0.5833668833698323,0
109,0,0,0,0.0031902710123445,0.0101657671512895,0.031298902752573,0.1666666666666666,0.4615384615384616,0.2222222222222222,0.5,0.0408074742771581,0.1763316120226183,0.8077785403797758,0.6363635728290284,0.7403846025907567,0.5753965105498471,0
1862,0,1,0,0.0009270829399688,0.0004597694774024,0.0112154401530053,0.0666666666666666,0.4615384615384616,0.0,0.5226860768097882,0.0408074742771581,0.1763316120226183,0.8444291924044841,0.5903215594315285,0.695638392983834,0.5663795231171365,0
3370,0,0,0,0.0290050668182651,0.0053793403347145,0.0251121077539987,0.2783580852415633,0.5384615384615385,0.0,0.4463568301212353,0.0307924404525631,0.1763316120226183,0.72111493744775,0.5681818213585486,0.7386983367562793,0.575991050389953,2
1926,0,0,0,0.0,0.0,0.0237350012540345,0.0333333333333333,0.4230769230769232,0.1111111111111111,0.6458876175371021,0.0408074742771581,0.0706162194306102,0.7750249696274032,0.5681818213585486,0.7019230720898414,0.5691168228734951,0
1501,0,0,0,0.0,0.0,0.0284298366669205,0.0,0.4768197583614587,0.2222222222222222,0.5576923076923077,0.0408074742771581,0.1763316120226183,0.9009837565774422,0.5681818213585486,0.7019230720898414,0.5716931049971267,0
2425,0,0,0,0.0030148419608985,0.0030111158936486,0.0210482208168863,0.2186080089340018,0.5014933402056425,0.2222222222222222,0.707790917468993,0.1002808901552601,0.1881427555194695,0.7750249696274032,0.5917914992886457,0.7069174270500176,0.5713374494657391,1
501,0,0,1,0.0,0.0,0.0294731334253396,0.4,0.5000000000000001,0.0,0.695054945054945,0.0408074742771581,0.1131346168140935,0.7750249696274032,0.6363636427170971,0.7019230720898414,0.569760893404403,0
51,0,0,1,0.0,0.0,0.0315597269421778,0.4,0.4666979362101314,0.0,0.5989010989010989,0.0408074742771581,0.1763316120226183,0.9675589110043468,0.5909090718487086,0.7403846025907567,0.5721761578953076,0
3500,0,0,0,0.0115244523764302,0.0134747970165036,0.0272231866413761,0.1999999999999999,0.4936600596757637,0.2222222222222222,0.3809322906420895,0.0408074742771581,0.1763316120226183,0.6154178594367832,0.5811732750666199,0.7297298497154071,0.5640258223409973,2
1292,1,0,1,0.4364290646725163,0.6465611609432831,0.5894626929590598,0.2333333333333333,0.4615384615384616,0.0,0.4575450322873003,0.0294267902001622,0.4534304616070764,0.7391901166781057,0.5454545009803199,0.7019230720898414,0.5600998354407845,2
2755,0,0,0,0.0,0.0,0.0387899875057779,0.5,0.4950289788591254,0.0,0.7344883715705668,0.0408074742771581,0.3031528598389631,0.7750249696274032,0.5680299534529395,0.7027840416978078,0.5721838283045442,1
73,0,0,0,0.1247750429476737,0.0059712375201457,0.031298902752573,0.3666666666666666,0.5384615384615385,0.0,0.4340659340659341,0.0068666485742616,0.365494685200327,0.8344086021505377,0.5681818213585486,0.7019230720898414,0.5764571336966197,2
2819,0,0,0,0.001719952291249,0.0006850730494781,0.0368889653831469,0.4905383558074397,0.5218345635212929,0.0,0.7269060661831822,0.0702436786029048,0.2832527603356721,0.7750249696274032,0.5680150563550466,0.7028684963327837,0.5715025383946235,1
949,0,0,0,0.0738943136638924,0.0082884940837286,0.0260824189604775,0.1,0.4768197583614587,0.8888888888888888,0.3131868131868132,0.0173268170561359,0.1763316120226183,0.5969572180279111,0.5681818213585486,0.7019230720898414,0.5712100520989457,2
1337,1,0,0,0.0408354689580102,0.0842266950680655,0.04642670574965,0.6,0.4615384615384616,0.0,0.8710490540387448,0.0051341366645519,0.6615624767709805,0.7750249696274032,0.52272725049016,0.7115384473230629,0.5649303644225937,1
752,1,0,0,0.0,0.0,0.0125195611010292,0.0,0.4768197583614587,0.4444444444444445,0.6126373626373627,0.0408074742771581,0.3871255482048614,0.9897506291466484,0.5681818213585486,0.7019230720898414,0.5683117347098602,0
2543,0,0,1,0.026986244324139,0.0039984108294967,0.0380252927546322,0.5199650182199775,0.5384615384615385,0.0,0.75407616661932,0.0300450830727812,0.2758207503064666,0.7750249696274032,0.5222576187279367,0.7065140254160952,0.5541223278208738,1
2973,0,0,1,0.0923950267693089,0.0089337350536457,0.0117986130336043,0.1281838127008929,0.5337001541848528,0.0,0.8448920320505666,0.0037405788402734,0.5929122030507251,0.7750249696274032,0.173134972952367,0.7211538248402021,0.8830862075102538,1
315,0,0,0,0.0,0.0,0.0148669788074721,0.1333333333333333,0.4615384615384616,0.0,0.6181318681318682,0.0408074742771581,0.1763316120226183,0.9986273164035688,0.5681818213585486,0.7119152491755713,0.5697447835902486,0
1950,0,1,0,0.0122702731244021,0.0020852959959231,0.0273865399085014,0.0666666666666666,0.4615384615384616,0.1111111111111111,0.369746233148295,0.058419951233179,0.1763316120226183,0.5973461450469,0.5454545708683886,0.8269230683938378,0.5505997951098929,2
1793,0,0,1,0.0068168140396818,0.0006265397340873,0.0396452768199258,0.1333333333333333,0.4230769230769232,0.0,0.4688739095955591,0.1355528197686081,0.0334497881513416,0.7574925646305193,0.5909090718487086,0.6923076968566199,0.5735448077734868,2
2670,1,0,0,0.0219586028476035,0.0081097909076747,0.0274861380026399,0.024728885576629,0.4369497456320116,0.0824296185887636,0.738291593604879,0.0265913441468935,0.3131345861147004,0.7750249696274032,0.5176000594427188,0.7068871717211631,0.5663451288387878,1
1284,0,0,0,0.0249768182637969,0.0001737876993617,0.026604067339687,0.3,0.5769230769230771,0.1111111111111111,0.5906593406593407,0.0301024950792777,0.1763316120226183,0.954243880118966,0.6136363223388684,0.7019230720898414,0.5512438656408007,0
471,0,0,0,0.0498991172500476,0.0048927279623731,0.018518517461939,0.0,0.4230769230769231,0.2222222222222222,0.4395604395604396,0.0130406420435144,0.1763316120226183,0.7101349805536491,0.5454545708683886,0.7019230720898414,0.5578455885826068,2
2029,1,0,0,0.0599084618896562,0.1745171093716835,0.234691905978883,0.0,0.4729629023845917,0.0,0.7678965486784134,0.053035168039167,0.3908341143787572,0.7750249696274032,0.5911264183500459,0.7211538300189777,0.5618933554535779,1
3049,0,0,1,0.0170455221709072,0.0088660740640358,0.0197103069851117,0.1830137634640407,0.4268493300301633,0.0,0.7087912087912088,0.0291381029177872,0.2357095071731212,0.7750249696274032,0.6479451425866284,0.7462275983194571,0.5790509858688015,1
3465,0,0,0,0.3945002062030458,0.0090826179501634,0.0308790833985668,0.4016267187704359,0.5000000000000001,0.0,0.3874284855432376,0.0018852984214148,0.1763316120226183,0.5823957892495313,0.6374727680662794,0.7108345793111129,0.575145086337384,2
157,0,0,0,0.0222773581764285,0.004985236924189,0.02895148504613,0.0,0.4615384615384616,0.0,0.478021978021978,0.045464906529925,0.1763316120226183,0.7722717913520933,0.5681818213585486,0.7500000073920073,0.5770066868771169,2
785,0,0,0,0.0113613501886574,0.0,0.0362545623550637,0.5333333333333333,0.5384615384615385,0.1111111111111111,0.6510989010989011,0.0717012618070798,0.1708169181595183,0.7750249696274032,0.5675943089413686,0.7052537977850847,0.5724981931607616,0
2932,0,0,1,0.3311134442030397,0.4076624101146242,0.2944812903125553,0.368072112132482,0.4709511376731997,0.0,0.7527472527472527,0.0071834818667993,0.3510741098639708,0.7750249696274032,0.6646529407666554,0.7405873259692978,0.6020081096246106,1
2689,0,0,1,0.0145388328083978,0.0031688959796597,0.0343809690517723,0.4654442857688819,0.4615384615384616,0.0,0.7201832024937752,0.0514068215363301,0.2656083039954072,0.7750249696274032,0.5715155867444447,0.7036861208256616,0.5705312566404445,1
52,0,0,0,0.2339259348448693,0.0096565824999075,0.0320813753213873,0.4,0.5000000000000001,0.0,0.3351648351648352,0.0036092439408579,0.1763316120226183,0.5414779226721574,0.6590908932072571,0.7019230720898414,0.5713710697316727,2
3774,0,0,0,0.0499243095357626,0.0064471101322402,0.0242344115396345,0.2666666666666666,0.4961808409235099,0.2222222222222222,0.4101204866146732,0.0168807982782167,0.1763316120226183,0.6475886016426453,0.5703802560804745,0.7022538069428689,0.5929398362007312,2
220,0,0,0,0.6023340729494044,0.0117445545083966,0.0211267593579868,0.3,0.4615442413173273,0.8888888888888888,0.3571428571428571,0.000762416046994,0.1491860551549839,0.5769846716998399,0.2727272155461255,0.5865384510190665,0.5713710697316727,2
2840,1,0,0,0.0152760323635344,0.0048222228197701,0.0260934105691003,0.285965589441932,0.5340079408980157,0.2222222222222222,0.7419594208585648,0.0560900684490939,0.3227609627350185,0.7777632670968372,0.5681818213585486,0.7019230720898414,0.5626676200548386,1
26,0,0,0,0.0977804420739891,0.0146653805589707,0.0331246720798064,0.3666666666666666,0.5384615384615385,0.0,0.2032967032967033,0.0102812340186182,0.0626626031368468,0.52964233966293,0.5909090718487086,0.730769197789506,0.5694409916225827,2
1506,0,0,0,0.0228227080113879,0.0055743340659253,0.0279081882877109,0.1,0.5000000000000001,0.2222222222222222,0.3956043956043956,0.0424844287968944,0.0987140414777373,0.6391214824982843,0.6136363223388684,0.7211538225562845,0.5716931049971267,2
1644,0,0,0,0.0,0.0,0.0349504414070398,0.4,0.5384615384615385,0.0,0.6346153846153846,0.0408074742771581,0.0410317401323124,0.7750249696274032,0.6130488099216885,0.7052537977850847,0.5676676641789523,0
2649,0,0,0,0.0227975295350522,0.0086886968238489,0.0286949037700787,0.3792344472145506,0.5094840566952239,0.0418926018262796,0.7662127319056998,0.0274576379113229,0.3864148619732734,0.7750249696274032,0.5853196871555756,0.7164243543359788,0.5706688320827326,1
205,0,0,1,0.3355510559536921,0.3857778199302004,0.3101199858923456,0.4333333333333333,0.4615384615384616,0.0,0.7527472527472527,0.0012068501646201,0.3510741098639708,0.7750249696274032,0.6590908932072571,0.7500000073920072,0.6172610950588607,1
214,0,0,0,0.0,0.0,0.0286906608565252,0.3666666666666666,0.576923076923077,0.0,0.6538461538461539,0.0408074742771581,0.0915037538095592,0.7750249696274032,0.6363635728290284,0.7403846025907567,0.5728901744858721,0
2575,1,0,1,0.0006808294418007,5.504093923884081e-05,0.0287253015522967,0.3289062521611511,0.576923076923077,0.0,0.7271700992770709,0.040680470281377,0.283945726995824,0.7750249696274032,0.546209186238942,0.7038386361529732,0.5648234387030585,1
2196,0,0,1,0.0259480630517147,0.0029796447377722,0.03359335334719,0.4459897469389088,0.5292071083205591,0.0,0.7127573931373429,0.0345599675718674,0.1902114830741182,0.7750249696274032,0.5678173829458758,0.7003382615471794,0.5689161699289458,1
3337,0,0,0,0.0669685288365782,0.0052519213956339,0.0483906929502664,0.4239924549489031,0.5107779365974194,0.0,0.3419724253741864,0.0068355865613452,0.1763316120226183,0.5524759732377843,0.5745506056360198,0.7115384473230629,0.5791697798030916,2
