,darkness,rainy,throttle_position,average_speed,std_speed,relative_distance,relative_speed,relative_acc,time_of_max_a_to_conflict,max_a_before_conflict,quasi_time_head_way,normal_acc,normal_dec,roll_rate,pitch_rate,yaw_rate,brake_duration
831,0,0,0,0.0310543925207168,0.0555110629891974,0.109024519405552,0.0333333333333333,0.3461538461538462,0.1111111111111111,0.4532967032967033,0.0500551866137707,0.1763316120226183,0.7900251658659346,0.5681818213585486,0.730769197789506,0.5728202284262155,1
124,0,0,0,0.0411463191492346,0.0010534506717412,0.0372978591134828,0.0666666666666666,0.3461538461538462,0.0,0.543956043956044,0.0239321777190607,0.1763316120226183,0.7900251658659346,0.5681818213585486,0.7019230720898414,0.5682584459243092,0
1580,0,0,0,0.0,0.0,0.0206051109787772,0.2333333333333333,0.4768197583614587,0.2222222222222222,0.6291208791208791,0.0408074742771581,0.0266111647959562,0.7750249696274032,0.5681818213585486,0.7115384473230629,0.5716931049971267,1
1611,0,0,1,0.0,0.0,0.0372978591134828,0.4333333333333333,0.5384615384615385,0.2222222222222222,0.7115384615384616,0.0408074742771581,0.2429197948412992,0.7750249696274032,0.5681818213585486,0.730769197789506,0.5716931049971267,0
700,0,0,0,0.0,0.0,0.0362545623550637,0.1333333333333333,0.3461538461538462,0.1111111111111111,0.5659340659340659,0.0408074742771581,0.1763316120226183,0.9142987874628232,0.5681818213585486,0.7403846025907567,0.5680702082607697,0
649,0,0,0,0.0027267295423601,0.0086886968238489,0.0242566496332441,0.2333333333333333,0.4615384615384616,0.6666666666666665,0.6785714285714286,0.0408074742771581,0.1563963428231621,0.7750249696274032,0.5675943089413686,0.7148691730183062,0.5691168228734951,1
2622,0,0,0,0.5149438902067562,0.0028977774864455,0.0233379053473817,0.0788923684710234,0.5011350885057851,0.0672820175160981,0.4849805378666956,0.0009846618547242,0.1763316120226183,0.7835137419811159,0.4443217378875644,0.668751479408472,0.5836784461933656,1
765,0,0,0,0.0572612614922519,0.0,0.0255607705812679,0.2333333333333333,0.5384615384615385,0.0,0.6373626373626374,0.0124228797339451,0.0482420278004906,0.7750249696274032,0.5909090718487086,0.7115384473230629,0.5647693467898667,0
173,0,0,0,0.0424551450104313,0.000260650269759,0.0177360448931247,0.1333333333333333,0.4768197583614587,0.2222222222222222,0.6758241758241759,0.0127715122295185,0.1491860551549839,0.5769846716998399,0.6590908932072571,0.7019230720898414,0.5817312904092367,0
461,0,0,0,0.0427823490216759,0.0003009820367772,0.0341679688382255,0.0333333333333333,0.5000000000000001,0.0,0.6071428571428572,0.0205671010141402,0.1763316120226183,0.9808739418897278,0.5681818213585486,0.7115384473230629,0.569760893404403,0
1200,0,0,1,0.0127610840493782,0.0028711998324849,0.0190401658411486,0.3,0.5,0.0,0.8597201767304861,0.0390353530927265,0.5463465398052478,0.7750249696274032,0.5681818213585486,0.7211538225562845,0.5552693064589751,0
900,0,0,1,0.1526967365775458,0.0022988060079305,0.0052164837920955,0.0333333333333333,0.5000000000000001,0.0,0.6758241758241759,0.001395991278246,0.1491860551549839,0.5414779226721574,0.4766852370926601,0.7148691730183062,0.5765236339789359,0
170,0,0,0,0.0,0.0,0.0206051109787772,0.2666666666666666,0.4637520752628667,0.0,0.5989010989010989,0.0408074742771581,0.1763316120226183,0.9675589110043468,0.5454545009803199,0.6923076672885907,0.5666142787747708,1
1750,1,1,1,0.0037628804860771,0.0016758359781439,0.02895148504613,0.4333333333333333,0.5,0.0,0.7846663645632718,0.1517383607038435,0.4348472459674422,0.7750249696274032,0.5681818213585486,0.7019230720898414,0.5654134173207747,0
70,0,0,1,0.2332169879123969,0.0691224207118581,0.02895148504613,0.0,0.4615384615384616,0.1111111111111111,0.8186813186813187,0.0024822481385623,0.365494685200327,0.8344086021505377,0.4318181786414514,0.7500000073920073,0.6164081202512528,0
254,0,0,0,0.1148497466281854,0.0106105323060874,0.0190401658411486,0.0666666666666666,0.4768197583614587,0.0,0.3543956043956044,0.0052271477730318,0.1763316120226183,0.5725463280713796,0.6130488798097572,0.7244845778195569,0.5553498152753387,1
73,0,0,0,0.0,0.0,0.0263432431500823,0.3,0.5384615384615385,0.0,0.543956043956044,0.0408074742771581,0.1763316120226183,0.8787920384351406,0.5681818213585486,0.7019230720898414,0.5681507170771332,0
2619,0,1,0,0.0,0.0,0.0185580105475988,0.0252527782075419,0.4712510685413624,0.3052746908805089,0.5507938477129,0.0408074742771581,0.1763316120226183,0.8332209125086943,0.5622941959919437,0.685961571777388,0.5669276383286771,1
1616,0,0,1,0.0,0.0,0.0299947818045491,0.3666666666666666,0.5,0.0,0.6593406593406593,0.0408074742771581,0.1059243291459153,0.7750249696274032,0.5909090718487086,0.7019230720898414,0.5716931049971267,0
1790,0,1,0,0.0,0.0,0.0344287930278303,0.4333333333333333,0.5,0.0,0.6458876175371021,0.0408074742771581,0.0706162194306102,0.7552047586364676,0.5454545708683886,0.7211538225562845,0.5680702082607697,0
794,0,0,0,0.0113613501886574,0.0,0.0169535723243103,0.0666666666666666,0.3461538461538462,0.3333333333333333,0.6236263736263736,0.049740399490701,0.0121905894596,0.665751544269046,0.6363635728290284,0.7211538225562845,0.5675871553625887,0
1594,0,0,0,0.0,0.0,0.0255607705812679,0.1999999999999999,0.5384615384615384,0.1111111111111111,0.6346153846153846,0.0408074742771581,0.0410317401323124,0.7750249696274032,0.6136363223388684,0.730769197789506,0.5716931049971267,0
1029,0,0,0,0.0160876925204626,0.0037873172934558,0.0174752207035199,0.0,0.4230769230769232,0.1111111111111111,0.4505494505494506,0.0412218088461909,0.1763316120226183,0.7278883550674903,0.5681818213585486,0.7211538225562845,0.5611464500535097,0
2130,0,0,0,0.0462834037506232,0.0023654347599848,0.0373596600721516,0.5460271862312708,0.5000000000000001,0.0,0.484839506500984,0.0232733135285149,0.274486966204762,0.7832858977596314,0.5906759453953182,0.7380445645388831,0.5645347620550744,1
2560,0,0,0,0.2312141430382082,0.0137971476918814,0.0318858773868765,0.4446105541744343,0.5169662403786404,0.0866043194530751,0.2159392414065127,0.0042516345302304,0.1763316120226183,0.3488621704681377,0.5959218351978007,0.7115384473230629,0.5538716218392321,1
869,0,0,0,0.0084528537283416,0.0045976356606401,0.0383411558719019,0.5333333333333333,0.5384615384615385,0.0,0.6291208791208791,0.0801409867275065,0.0266111647959562,0.7750249696274032,0.5221398079610486,0.7148691730183062,0.5708880168334918,0
354,0,0,0,0.0420461326342117,0.0112869482628623,0.0367762107342733,0.3,0.4768197583614587,1.0,0.3379120879120879,0.0408074742771581,0.1763316120226183,0.5459162663006177,0.5681818213585486,0.7019230720898414,0.5699426420573435,1
2172,0,0,0,0.0193395732180699,0.0079537507562027,0.0319750978566585,0.2333333333333333,0.4717135547019486,0.4444444444444445,0.3867521989934944,0.0397054113776935,0.1763316120226183,0.6248202535832669,0.5818902480963045,0.7044668428986391,0.5702000884989191,1
2272,0,0,1,0.1133435903243336,0.0180419453149826,0.0428767383137854,0.2598279730419731,0.4830372245481477,0.0,0.3157788060770039,0.0080348267401395,0.1763316120226183,0.5874098993963855,0.501982379187094,0.7307692273575351,0.5821462890194791,1
2032,0,0,0,0.3923125000708806,0.0058949599678774,0.0294659882518787,0.1754814257823701,0.4649287535060399,0.1013169343158849,0.4583150734020514,0.0015960869724971,0.1763316120226183,0.821376448631205,0.735286136424056,0.7098433299549826,0.5569850331223973,1
1190,0,0,0,0.0,0.0,0.0156494513762865,0.0,0.4526627218934912,0.3333333333333333,0.6402231788829728,0.0408074742771581,0.1449490819891473,0.7750249696274032,0.5681818213585486,0.7115384473230629,0.5617100117680541,0
1697,1,0,0,0.0,0.0,0.0320813753213873,0.0333333333333333,0.4615384615384616,0.7777777777777777,0.6317265209017786,0.0408074742771581,0.0334497881513416,0.7750249696274032,0.3636363572829028,0.7211538225562845,0.5639642586262318,0
1621,0,0,0,0.0,0.0,0.0093896708257719,0.0333333333333333,0.4615384615384616,0.1111111111111111,0.6098901098901099,0.0408074742771581,0.1763316120226183,0.985312285518188,0.5681818213585486,0.6923076968566199,0.5716931049971267,1
32,0,0,0,0.436140045751235,0.0034852378411269,0.0323421995109921,0.4333333333333333,0.5384615384615385,0.1111111111111111,0.543956043956044,0.0017201786938887,0.1763316120226183,0.86991535117822,0.8636363572829029,0.4903846099827639,0.562515099931689,0
1941,0,0,0,0.2870123166217362,0.0078121845611026,0.0319778831417933,0.4106880730719838,0.5384615384615385,0.035626910239946,0.3884363330320238,0.0028966239145772,0.1763316120226183,0.6489944210669197,0.4832956044776171,0.7172504071639615,0.6140925914516533,1
741,0,0,0,0.0068168042234633,0.0,0.0279081882877109,0.4,0.5000000000000001,0.0,0.7252747252747253,0.1146000954200187,0.1960529249981417,0.7750249696274032,0.5681818213585486,0.7019230720898414,0.5672651200971348,0
1763,0,1,0,0.0062714740209409,0.0009195448658627,0.0226917044956154,0.1999999999999999,0.5,0.2222222222222222,0.4802027869038178,0.1163978397482887,0.1763316120226183,0.7757950125829329,0.5454545708683886,0.7403846025907567,0.5658964702189555,0
436,0,0,0,0.0935267506629358,0.0034656940976904,0.0388628042511115,0.5333333333333333,0.3846153846153847,0.3333333333333333,0.5714285714285715,0.0064470198520207,0.1763316120226183,0.9231754747197438,0.5454545708683886,0.7019230720898414,0.5657354525862286,1
1861,0,0,0,0.0054393072254202,0.0086661494437289,0.0211335278093054,0.2668396682922431,0.5383617298313983,0.1111111111111111,0.5467745885819684,0.0408074742771581,0.1763316120226183,0.8833455581629897,0.6361867092281502,0.730694370881241,0.569053236766798,1
211,0,0,1,1.0,0.0025906497646585,0.0213875835475915,0.3,0.653846153846154,0.1111111111111111,0.6758241758241759,0.0003164309882739,0.1491860551549839,0.5769846716998399,0.4545454291316113,0.7019230720898414,0.576201598713482,0
1927,0,0,0,0.0,0.0,0.0280128702617489,0.0547240982102234,0.4931100566597443,0.5555555555555556,0.573494561333,0.0408074742771581,0.1763316120226183,0.9102140933841686,0.5681818213585486,0.7177088542475704,0.5675038230083286,1
233,0,0,0,0.0158968259679579,0.0048165506351055,0.0367762107342733,0.5,0.4615384615384616,0.2222222222222222,0.5359104169026849,0.0888067985293844,0.1763316120226183,0.865793868679936,0.5454545708683886,0.6826923216233983,0.5698630268888417,0
239,0,0,1,0.0,0.0,0.033646320459016,0.3666666666666666,0.5307692307692309,0.1111111111111111,0.6787461765039084,0.0408074742771581,0.1568549765851483,0.7750249696274032,0.5227273203782287,0.7019230720898414,0.5684403555948825,0
1393,0,0,0,0.0550253625073048,0.0013148299007542,0.0255607705812679,0.3333333333333333,0.5000000000000001,0.1111111111111111,0.6401098901098902,0.0136350713819752,0.0554523154686686,0.7750249696274032,0.5454545708683886,0.7019230720898414,0.5716931049971267,0
1288,1,0,0,0.0176146543891557,0.0006265484093996,0.0294731334253396,0.3666666666666666,0.576923076923077,0.2222222222222222,0.6473037272006344,0.0475448580606381,0.0743328625585371,0.8970487302676733,0.2272727844538743,0.6730769168221477,0.569760893404403,0
2526,0,0,0,0.0,0.0,0.027258556416701,0.3229554636018372,0.4960062625991301,0.0,0.6121709603805486,0.0408074742771581,0.1615420933094914,0.6200280188834374,0.5752576347068075,0.7221516936721828,0.5720060700441054,1
324,0,0,0,0.0460271589440038,0.0048165506351055,0.031298902752573,0.1666666666666666,0.4615384615384616,0.1111111111111111,0.4917582417582418,0.0198818696776429,0.1763316120226183,0.9305727141005108,0.5454545708683886,0.7211538225562845,0.5697450009640528,1
1741,0,1,1,0.2420679481982051,0.3584671399716836,0.091549298702032,0.1666666666666666,0.4615384615384616,0.0,0.3839073297836185,0.0256600970409395,0.1763316120226183,0.6202242049874171,0.52272725049016,0.9038461589636974,0.5421463693917267,0
509,0,0,0,0.0588427819033653,0.0071374263103872,0.0339071446486207,0.1666666666666666,0.4615384615384616,0.2222222222222222,0.4175824175824176,0.0171984565956282,0.1763316120226183,0.6746282315259666,0.5675943089413686,0.7052537977850847,0.5559133769898831,0
772,0,0,0,0.3653814641897036,0.5821422180086253,0.3711528381091071,0.1333333333333333,0.6153846153846155,0.0,0.6071428571428572,0.0408074742771581,0.1763316120226183,0.9808739418897278,0.5227273203782287,0.7019230720898414,0.5712100520989457,0
1820,1,1,0,0.0231662756588712,0.0006255856708485,0.0166927481347056,0.0,0.4615384615384616,0.0,0.6189815339299876,0.0232722116856061,0.0,1.0,0.5000000698880687,0.6923076968566199,0.5711295432825823,0
1368,0,0,0,0.0,0.0,0.0354720897862494,0.4,0.5384615384615385,0.0,0.6648351648351648,0.0408074742771581,0.1203449044822715,0.7750249696274032,0.5903215594315285,0.7148691730183062,0.5736253165898504,0
2188,0,0,0,0.0,0.0,0.0095143657021086,0.0083576886853865,0.4826317556594676,0.3054743710487113,0.5205923517489847,0.0408074742771581,0.1763316120226183,0.8410466600573393,0.6249667357727351,0.7019230720898414,0.5681504817786653,1
527,0,0,0,0.2961498444968655,0.3130969416622674,0.1377151802620772,0.0333333333333333,0.4615384615384616,0.0,0.3076923076923077,0.0036785106891606,0.1763316120226183,0.4970944863875544,0.6363636427170971,0.7115384473230629,0.5165445657881376,1
727,1,0,0,0.0,0.0,0.0213875835475915,0.2333333333333333,0.5384615384615385,0.0,0.695054945054945,0.0408074742771581,0.1996580688322307,0.7750249696274032,0.5675943089413686,0.7340999530527784,0.572417684344398,0
464,0,0,0,0.0138245044480868,0.0021068742546541,0.0284298366669205,0.3,0.4768197583614587,0.0,0.5494505494505495,0.0680642218465483,0.1763316120226183,0.8876687256920613,0.5448670584512086,0.7052537977850847,0.5657354525862286,1
1655,0,1,0,0.0344113036583093,0.1096512800978643,0.2376108530314621,0.0666666666666666,0.3461538461538462,0.5555555555555556,0.5637532570522261,0.0408074742771581,0.1763316120226183,0.9107755662319836,0.5221398079610486,0.6667922672841694,0.5663795231171365,0
605,0,0,0,0.0060805976522177,0.0097231776980308,0.0299947818045491,0.0333333333333333,0.3846153846153847,0.7777777777777777,0.5302197802197802,0.0408074742771581,0.1763316120226183,0.8566003202928392,0.6363635728290284,0.730769197789506,0.5755575281825741,1
2610,0,0,0,0.0826493558903461,0.0934752347084018,0.0629807570833161,0.3412342619036112,0.4706549175810899,0.0,0.4174398665616301,0.0365442394003886,0.1763316120226183,0.6743979322149638,0.5796868332775033,0.7090225465845716,0.5594561212153082,1
2284,0,0,0,0.1088251253934815,0.0215638211326337,0.0222518457271588,0.0660227542227851,0.537718562564752,0.1100379237046419,0.2435767746345115,0.006533536204044,0.1763316120226183,0.3935121829693586,0.544576507953985,0.7017373280112952,0.5718212102305205,1
1809,1,0,0,0.0,0.0,0.0339071446486207,0.4666666666666667,0.4652519893899205,0.0,0.6458876175371021,0.0408074742771581,0.0706162194306102,0.7750249696274032,0.5675943089413686,0.7244845482515277,0.569277840506222,0
1451,0,0,0,0.0232862494813723,0.0021140540588424,0.0328638478902016,0.4333333333333333,0.5384615384615385,0.0,0.695054945054945,0.0353417310814971,0.1996580688322307,0.7750249696274032,0.5681818213585486,0.7211538225562845,0.5774897397752977,0
298,0,0,0,0.0855374384045786,0.0667753347790631,0.0513823735028966,0.1666666666666666,0.4615384615384616,0.1111111111111111,0.4038461538461538,0.0111347511025764,0.1763316120226183,0.652436513383665,0.5675943089413686,0.7340999530527784,0.572758228586734,1
2369,0,0,0,0.003516785488137,0.0085021123219205,0.0246738229746534,0.2292321982507176,0.456806382596982,0.6735018918043593,0.6687692650497923,0.0408074742771581,0.1576227013015912,0.7789511078089607,0.569028563822901,0.7199878675687648,0.5687899471175594,1
44,0,0,0,0.4509189025942823,0.0095729820945707,0.0331246720798064,0.5,0.5384615384615385,0.2222222222222222,0.3131868131868132,0.0017519297586507,0.1763316120226183,0.505971173644475,0.5454545708683886,0.7307692273575351,0.468154637051402,0
56,0,0,0,0.3195997107081879,0.0108552928113562,0.0352112655966446,0.4666666666666667,0.5384615384615385,0.2222222222222222,0.2912087912087912,0.0027841220372777,0.1763316120226183,0.6539159612598185,0.47727274950984,0.7596153826252288,0.6164725031516988,0
410,0,0,0,0.1107869315858553,0.3530214660603305,0.3158581099128947,0.0,0.3846153846153847,0.1111111111111111,0.6813186813186813,0.0408074742771581,0.1636066304913402,0.7750249696274032,0.5454545708683886,0.7211538521243136,0.5421463693917267,0
786,0,0,0,0.0,0.0,0.0187793416515438,0.2666666666666666,0.5,0.0,0.7087912087912088,0.0408074742771581,0.2357095071731212,0.7750249696274032,0.5909090718487086,0.7019230720898414,0.5679091906280427,0
175,0,0,0,0.0507443918250414,0.0098928979376655,0.044079288043207,0.6,0.4615384615384616,0.3333333333333333,0.3901098901098901,0.0157558739561413,0.1763316120226183,0.6302447952413636,0.5681818213585486,0.7211538225562845,0.5614187630739776,0
949,0,0,1,0.1614222554071486,0.4870295527745152,0.1051121565614803,0.0,0.4230769230769231,0.1111111111111111,0.2445054945054945,0.0408074742771581,0.1763316120226183,0.3950125829329672,0.5903215594315285,0.6764076425173909,0.565815961402592,1
1513,0,0,0,0.0,0.0,0.0380803316822972,0.4333333333333333,0.4615384615384616,0.1111111111111111,0.6758241758241759,0.0408074742771581,0.1491860551549839,0.7750249696274032,0.6136363223388684,0.7115384473230629,0.5676676641789523,1
2102,0,0,1,0.0061439513667483,0.0061179476996294,0.0272379507317798,0.3666666666666666,0.517905542643952,0.1111111111111111,0.5463992689549261,0.0601495642243353,0.1763316120226183,0.8827392078819734,0.5728803473873395,0.7224790636528259,0.5671193171199302,1
1088,0,0,1,0.0,0.0,0.0148669788074721,0.1333333333333333,0.4615384615384616,0.6666666666666665,0.6071428571428572,0.1261822022786274,0.1763316120226183,0.7256691832532601,0.5675943089413686,0.7052537977850847,0.5835279010025594,0
1127,0,0,0,0.0024540546248804,0.0078198208856073,0.0096504950153766,0.1,0.5384615384615385,0.2222222222222222,0.4038461538461538,0.0408074742771581,0.1763316120226183,0.652436513383665,0.5681818213585486,0.6634615415889261,0.5875533418207337,1
1815,1,1,0,0.0229699512888807,0.0032506384991904,0.031298902752573,0.3333333333333333,0.4615384615384616,0.0,0.5226860768097882,0.0446609809859262,0.1763316120226183,0.8444291924044841,0.5454545708683886,0.7019230720898414,0.5700829286698569,1
270,0,0,0,0.0337841454583748,0.0018856546198687,0.0219092319268011,0.1999999999999999,0.5,0.1111111111111111,0.5741758241758242,0.0197449415287365,0.1763316120226183,0.927613818348204,0.4090908582632228,0.7211538225562845,0.5644688073783818,1
1869,0,0,0,0.0038617635722123,0.0004171304301355,0.0187692459663634,0.2413348197020804,0.5384615384615385,0.0,0.5274725274725275,0.0439248465606291,0.1763316120226183,0.8521619766643789,0.5621387553914852,0.7052537977850847,0.5677452362505799,1
2252,1,0,0,0.0,0.0,0.0151891511232298,0.1313772928283218,0.4841639906526896,0.0,0.6043474206590328,0.0408074742771581,0.1763316120226183,0.9763577546844716,0.6040367894522635,0.7032944525741646,0.5628085163763407,1
2179,1,0,0,0.0269730083813773,0.0011318634258233,0.0154996181524224,0.0499363584503668,0.4806957982119618,0.1668788051654438,0.4563019595775683,0.0258531618826403,0.1763316120226183,0.7849724444725097,0.5682686052049543,0.7115384621635301,0.556891779680243,1
1994,0,0,0,0.0,0.0,0.0229604363691572,0.2089816954396899,0.5902790121520575,0.0,0.6510989010989011,0.0408074742771581,0.1017788302657756,0.7750249696274032,0.5743056986210734,0.7019230720898414,0.5702815294859295,1
748,0,0,0,0.0327207250596661,0.0,0.0307772543733634,0.3666666666666666,0.5,0.0,0.521978021978022,0.025588566892352,0.2429197948412992,0.8432852894074583,0.5681818213585486,0.7500000073920072,0.5669430848316809,0
1014,0,0,0,0.0144516528318028,0.0008688759382416,0.023213352874825,0.3,0.4660633484162896,0.0,0.5851648351648352,0.0466880231222105,0.1763316120226183,0.9453671928620452,0.5675943089413686,0.7052537977850847,0.5509218303753468,0
1448,0,0,0,0.0,0.0,0.033646320459016,0.4,0.5000000000000001,0.1111111111111111,0.6291208791208791,0.0408074742771581,0.0266111647959562,0.8122168840082361,0.5675943089413686,0.7244845482515277,0.5774897397752977,0
1518,0,0,0,0.0604242728658232,0.0102072710269001,0.0284298366669205,0.0666666666666666,0.4615384615384616,0.8888888888888888,0.3049450549450549,0.0198996321889256,0.0698728908050249,0.4926561427590941,0.5675943089413686,0.7148691730183062,0.585299094962556,1
1269,1,0,0,0.0,0.0,0.0229525286852202,0.2333333333333333,0.5000000000000002,0.0,0.6090687662852612,0.0408074742771581,0.1763316120226183,0.983985358041638,0.5675943089413686,0.7148691730183062,0.5633201880953239,1
2497,0,0,0,0.0,0.0,0.0240910053289751,0.3358633481462644,0.5365153732208223,0.0,0.6161994735008794,0.0408074742771581,0.1763316120226183,0.9955054225746536,0.5676068185545756,0.7112951769053435,0.5634927130678595,1
829,0,0,0,0.0075742334591049,0.0024135407974173,0.0341679688382255,0.0333333333333333,0.4615384615384616,0.2222222222222222,0.4917582417582418,0.1256199393212915,0.1763316120226183,0.7944635094943949,0.5681818213585486,0.7019230720898414,0.5748329488353027,1
443,0,0,1,0.0593608524671146,0.008054300711953,0.0276473640981061,0.0,0.4615384615384616,0.1111111111111111,0.3434065934065934,0.0086414332772491,0.1763316120226183,0.5547929535575384,0.5454545708683886,0.7115384473230629,0.5755575281825741,0
471,0,0,1,0.0,0.0,0.0237350012540345,0.2666666666666666,0.5384615384615385,0.0,0.6510989010989011,0.0408074742771581,0.0842934661413811,0.7750249696274032,0.5681818213585486,0.7019230720898414,0.569760893404403,0
1216,0,0,1,0.0157059495992347,0.0018059193069471,0.0286906608565252,0.4333333333333333,0.5,0.1111111111111111,0.8710490540387448,0.0439097665334004,0.6615624767709805,0.7750249696274032,0.5448670584512086,0.7244845778195569,0.5649303644225937,0
1874,0,0,0,0.0069176308769343,0.0003212831379727,0.0267065343769776,0.0622294357137506,0.5282217747240401,0.3185425634902801,0.4846136010597869,0.1402902215797866,0.1763316120226183,0.8752615335834961,0.5878836900682202,0.7019230720898414,0.5659693991246719,1
2509,0,0,0,0.2319938748832627,0.0093860980748586,0.0281825095812911,0.3456317086747797,0.483819263083164,0.0,0.3623345830706822,0.0041908253396518,0.1763316120226183,0.6601399860450333,0.6674761814036858,0.7247014273662946,0.5807576934009632,1
2466,0,0,0,0.0240144011120504,0.0040415063750717,0.0267508462270724,0.3291499809104411,0.5216442417824378,0.2222222222222222,0.4898674426949722,0.0293016196058372,0.1763316120226183,0.7914088156794361,0.5679249317223669,0.7033794309463552,0.5696904884905993,1
2443,0,0,0,0.0057420808201183,0.0,0.0244504985699948,0.0981983935858758,0.5202701575466101,0.3333333333333333,0.5030072487824783,0.1464520444676996,0.1763316120226183,0.8687756593911213,0.5798817507910033,0.7125941066682095,0.5670072891586331,1
433,0,0,0,0.0,0.0,0.0271257157188966,0.4,0.5000000000000001,0.2222222222222222,0.6923076923076923,0.0746436347352994,0.1924477811640526,0.7750249696274032,0.5681818213585486,0.7403846025907567,0.5579260973989703,0
450,0,0,0,0.1758466486001782,0.0034328544174721,0.0221700561164059,0.1333333333333333,0.5384615384615385,0.6666666666666665,0.5521978021978022,0.0039759793355373,0.1763316120226183,0.8921070693205216,0.52272725049016,0.7115384473230629,0.5618710294007812,0
1599,0,0,1,0.096580674400322,0.2492474208242306,0.1249347868206873,0.1,0.3846153846153847,0.1111111111111111,0.4972527472527472,0.0361988570109085,0.1763316120226183,0.8033401967513155,0.5909090718487086,0.6923076968566199,0.5735448077734868,1
2073,0,0,0,0.0614909006468527,0.010360027675138,0.0225815406923264,0.2051754636061031,0.5028552765686479,0.2222222222222222,0.3441403959827619,0.0134714963404177,0.1763316120226183,0.5559784535053471,0.5582431910345591,0.7160306874255247,0.5537307132953471,1
1378,0,0,0,0.0,0.0,0.0195618142203581,0.1999999999999999,0.4768197583614587,0.0,0.6208791208791209,0.0408074742771581,0.0049803017914219,0.7750249696274032,0.6130488099216885,0.7052537977850847,0.5716931049971267,1
408,0,0,0,0.0,0.0,0.0226917044956154,0.2666666666666666,0.4615384615384616,0.0,0.695054945054945,0.0408074742771581,0.1996580688322307,0.7750249696274032,0.5681818213585486,0.7019230720898414,0.5677481729953158,0
2299,1,0,0,0.1769556027900728,0.0055038541634655,0.0230112641843065,0.2492493602788492,0.5000000000000001,0.0530534231517196,0.3907327609421715,0.0238373048667622,0.1763316120226183,0.6312510786248543,0.5892979608133011,0.7052537977850847,0.6563484117123657,1
196,0,0,1,0.3355510559536921,0.3857778199302004,0.3101199858923456,0.4333333333333333,0.4615384615384616,0.0,0.7527472527472527,0.0012068501646201,0.3510741098639708,0.7750249696274032,0.6590908932072571,0.7500000073920072,0.6172610950588607,0
1099,0,0,0,0.0,0.0,0.010432967584191,0.1333333333333333,0.5,0.2222222222222222,0.5412087912087913,0.0408074742771581,0.1763316120226183,0.8743536948066803,0.5227273203782287,0.7211538521243136,0.5835279010025594,0
1048,0,0,1,0.018541747145343,0.0052851120066489,0.0299947818045491,0.4,0.5384615384615385,0.0,0.6648351648351648,0.0351901744421234,0.1203449044822715,0.8521619766643789,0.4545454291316113,0.7019230720898414,0.5654939261371381,0
941,0,0,0,0.0,0.0,0.008085549877748,0.1333333333333333,0.5,0.0,0.5412087912087913,0.0408074742771581,0.1763316120226183,0.8743536948066803,0.5909090718487086,0.7211538521243136,0.562676117564416,0
999,0,0,0,0.103888318997417,0.0015049372705085,0.0318205511317825,0.4,0.5384615384615385,0.0,0.5164835164835165,0.0083372974880254,0.1763316120226183,0.8987645847632121,0.5448670584512086,0.7052537977850847,0.5601803442571479,0
439,0,0,0,0.0995528192213887,0.0097076335590111,0.0307772543733634,0.3666666666666666,0.5384615384615385,0.2222222222222222,0.3543956043956044,0.0090239527848507,0.1763316120226183,0.5725463280713796,0.52213973807298,0.743715357854029,0.5813541629607452,0
2002,0,0,0,0.1165947564850853,0.0122385074962989,0.0182576932723342,0.1834935413359215,0.5868157446198642,0.2222222222222222,0.2203547993388462,0.0053844497421613,0.1763316120226183,0.3494022361436091,0.517100071482768,0.7019230720898414,0.5595393692838385,1
1339,0,0,0,0.0326389265109096,0.0022473382604805,0.0247782980124536,0.0666666666666666,0.5,0.0,0.6098901098901099,0.0223097299349387,0.1763316120226183,0.985312285518188,0.5903215594315285,0.7052537977850847,0.5832863745534689,0
1924,0,0,0,0.0,0.0,0.0141105185867353,0.1999999999999999,0.4619194676221363,0.0,0.6097531162799185,0.0408074742771581,0.1763316120226183,0.9850909645212244,0.5681671730071833,0.7207573898294959,0.5714943809903396,1
729,0,0,0,0.1772372730101315,0.0086886968238489,0.020865935168382,0.2666666666666666,0.5,0.2222222222222222,0.6043956043956045,0.0031672835829946,0.1763316120226183,0.9764355982612676,0.6136363922269371,0.7596154121932579,0.5814346717771086,0
321,0,0,0,0.0,0.0,0.0226917044956154,0.0333333333333333,0.3846153846153847,0.0,0.6181318681318682,0.0408074742771581,0.1763316120226183,0.9986273164035688,0.5454545708683886,0.7115384473230629,0.5701473035194211,1
1423,0,0,0,0.0,0.0,0.0146061546178674,0.1333333333333333,0.5384615384615385,0.1111111111111111,0.6456043956043956,0.0408074742771581,0.0698728908050249,0.7750249696274032,0.5681818213585486,0.7692307874264794,0.5774897397752977,0
367,0,0,0,0.053934662837386,0.0042146711155658,0.0299947818045491,0.1999999999999999,0.4768197583614587,0.2222222222222222,0.5082417582417582,0.0159958244972174,0.1763316120226183,0.8210935712651567,0.5675943089413686,0.7052537977850847,0.5654134173207747,1
2186,0,0,0,0.0232072140984901,0.0076176021210594,0.0237350012540345,0.2733501606629117,0.5,0.1111111111111111,0.4322390551271736,0.0471192145527566,0.1763316120226183,0.6983068660915235,0.5513547754944899,0.7124260803696044,0.5621540443044915,1
2031,0,0,0,0.1053010943400117,0.018364711267939,0.019599335358674,0.1051716403514011,0.5147263872552008,0.0683278070169616,0.2148862839787756,0.0062353382673336,0.1763316120226183,0.3471610576400187,0.5542056926888884,0.7130302651995627,0.5750142938848559,1
1618,0,0,0,0.0314118991984694,0.0027626722059985,0.0177360448931247,0.1333333333333333,0.5,0.2222222222222222,0.532967032967033,0.0205416937028253,0.1763316120226183,0.8610386639212995,0.6136363223388684,0.7692307578584503,0.559858308991694,0
998,0,0,0,0.0,0.0,0.010432967584191,0.1333333333333333,0.5384615384615385,0.1111111111111111,0.5741758241758242,0.0408074742771581,0.0915037538095592,0.9631205673758864,0.5681818213585486,0.7115384473230629,0.5653329085044111,0
1832,1,0,0,0.0,0.0,0.0260824189604775,0.2666666666666666,0.5,0.0,0.674209810807749,0.0408074742771581,0.1449490819891474,0.7750249696274032,0.5681818213585486,0.644230761554454,0.5695998757716759,0
2586,0,0,0,0.008921249065433,0.0081265685532389,0.0254251549878644,0.2745264031319736,0.4909310733092611,0.2222222222222222,0.5108328801533979,0.0427869377070874,0.1763316120226183,0.8252796766166174,0.516076734428085,0.7335829072375146,0.5697039433772254,1
1270,1,0,0,0.0300376286085364,0.0032506384991904,0.0164319239451008,0.2333333333333333,0.576923076923077,0.2222222222222222,0.5141894188285941,0.0182790655417771,0.1763316120226183,0.8307023564401739,0.5221398079610486,0.7148691730183062,0.5600998354407845,1
1244,1,0,0,0.0,0.0,0.0195618142203581,0.2666666666666666,0.5769230769230771,0.0,0.6515520561912315,0.0408074742771581,0.0854827919423177,0.7750249696274032,0.5681818213585486,0.7115384473230629,0.5576845709498798,0
1988,1,1,0,0.0102328252931991,0.0011996477394122,0.0283742073840207,0.0886429132813623,0.4696659335531077,0.947984164409797,0.5820762766161769,0.1025157580027108,0.0937832867597026,0.94037745022942,0.5463151242929253,0.7052537977850847,0.5687778337210878,1
1071,0,0,1,0.1254294607863814,0.0247437081960603,0.0485132992664882,0.3333333333333333,0.5000000000000001,0.0,0.3351648351648352,0.0064812247935159,0.1763316120226183,0.5326012354152367,0.4318181786414514,0.7307692273575351,0.5931889589661778,1
1027,0,0,0,0.0,0.0,0.0172143965139151,0.1,0.4615384615384616,0.0,0.6071428571428572,0.0408074742771581,0.1763316120226183,0.9808739418897278,0.5681818213585486,0.7115384473230629,0.5708880168334918,1
572,0,0,1,0.0127610840493782,0.0036492691099909,0.0286906608565252,0.3,0.5384615384615385,0.3333333333333333,0.7252747252747253,0.0292571465120573,0.2789712331821898,0.7456417295813316,0.5675943089413686,0.7148691730183062,0.5637227321771414,0
819,0,0,0,0.0081801886270804,0.0,0.0284298366669205,0.0,0.4615384615384616,0.0,0.5686813186813187,0.0875749869969712,0.1763316120226183,0.9187371310912836,0.5681818213585486,0.7019230720898414,0.5772482133262073,1
567,0,0,0,0.0,0.0,0.0166927481347056,0.1999999999999999,0.5384615384615384,0.7777777777777777,0.5082417582417582,0.0408074742771581,0.1763316120226183,0.854381148478609,0.5227273203782287,0.7115384473230629,0.5657354525862286,0
916,0,0,0,0.0,0.0,0.0391236284407163,0.5333333333333333,0.4636556104446013,0.0,0.4835164835164836,0.0408074742771581,0.1763316120226183,0.7811484786090139,0.5681818213585486,0.7115384473230629,0.5641252762589588,0
1701,0,0,0,0.0,0.0,0.0302556059941539,0.0,0.4615384615384616,0.3333333333333333,0.6062365469581965,0.0408074742771581,0.1763316120226183,0.8467169983985359,0.5675943089413686,0.7052537977850847,0.5639642586262318,1
1667,1,0,1,0.2895784457358902,0.338226698332804,0.4843505445483356,0.4,0.4230769230769232,0.1111111111111111,0.5085249801744647,0.0051390138931452,0.1763316120226183,0.821551132463967,0.5454545708683886,0.7307692273575351,0.5778922838571152,0
1114,0,0,0,0.0507171223700497,0.0060196949047258,0.0221700561164059,0.2333333333333333,0.4768197583614587,0.1111111111111111,0.4148351648351648,0.0168254166201752,0.1763316120226183,0.6701898878975063,0.5454545708683886,0.7115384473230629,0.5822397599407435,0
480,0,0,0,0.0695860735266374,0.0046490456238024,0.0221700561164059,0.0333333333333333,0.4768197583614587,0.2222222222222222,0.4423076923076923,0.0095752428232245,0.1763316120226183,0.7145733241821094,0.5675943089413686,0.7148691730183062,0.5794219513680214,1
1613,0,0,0,0.0,0.0,0.0234741770644297,0.0666666666666666,0.4615384615384616,0.0,0.6703296703296704,0.0408074742771581,0.1347654798186277,0.7750249696274032,0.5909090718487086,0.7115384473230629,0.5716931049971267,0
662,0,0,0,0.0143910573150052,0.0024135095181338,0.0281690124773157,0.3333333333333333,0.5384615384615385,0.0,0.7032967032967034,0.0499427859999343,0.1203449044822716,0.7750249696274032,0.5903215594315285,0.7244845778195569,0.5682312258934967,0
1710,1,0,0,0.0,0.0,0.0127803852906339,0.0666666666666666,0.5,0.4444444444444445,0.6062365469581965,0.0408074742771581,0.1763316120226183,0.9794097460535348,0.6363635728290284,0.6923076968566199,0.5600998354407845,1
554,0,0,0,0.0574248782222019,0.0094810289559721,0.0044340112232811,0.0,0.4768197583614587,0.0,0.3186813186813187,0.0048847528702358,0.1763316120226183,0.5148478609013956,0.5675943089413686,0.7052537977850847,0.5657354525862286,1
1298,0,0,0,0.0139608419068267,0.0001737876993617,0.0247782980124536,0.2666666666666666,0.5769230769230771,0.2222222222222222,0.5226860768097882,0.0492471784352829,0.1763316120226183,0.8444291924044841,0.4545454291316113,0.7500000073920073,0.5681507170771332,0
1395,0,0,1,0.0,0.0,0.0284298366669205,0.3666666666666666,0.576923076923077,0.0,0.7060439560439561,0.0408074742771581,0.2284992195049431,0.7750249696274032,0.5681818213585486,0.7403846025907567,0.5755575281825741,0
43,0,0,0,0.0,0.0,0.0279081882877109,0.3333333333333333,0.5000000000000001,0.0,0.6098901098901099,0.0408074742771581,0.1763316120226183,0.6243270037367499,0.5681818213585486,0.7211538225562845,0.5718393331602877,1
969,0,0,0,0.1848721118022525,0.1902882643748646,0.0871152874787508,0.0333333333333333,0.4230769230769232,1.0,0.3351648351648352,0.0135694033476668,0.1763316120226183,0.5414779226721574,0.5681818213585486,0.6057692014855096,0.5753965105498471,1
783,1,0,0,0.0163603772541608,0.0,0.0169535723243103,0.0,0.4230769230769231,0.2222222222222222,0.6868131868131868,0.0226368357220704,0.2032632126663197,0.7750249696274032,0.6363635728290284,0.7019230720898414,0.5676676641789523,0
2380,0,0,0,0.0557043507528621,0.0087152494380128,0.0244534974226766,0.1421381134411331,0.4325109820098206,0.6939206146950371,0.4043645931849433,0.0205044736162783,0.1763316120226183,0.6934702675190468,0.5681818213585486,0.7211538225562845,0.5651309309737756,1
1370,0,0,0,0.0720401477839548,0.0055013942402,0.0307772543733634,0.2666666666666666,0.5769230769230771,0.0,0.4615384615384615,0.0120036211658012,0.1763316120226183,0.7456417295813316,0.5681818213585486,0.7115384473230629,0.6679011405514945,0
2127,0,0,0,0.0073901365083201,0.0010252851941828,0.0197498197120598,0.1519457935792995,0.5212519607374886,0.2222222222222222,0.4481872145614995,0.0522417549671478,0.1763316120226183,0.724072027990731,0.5352535959930437,0.7343835878775823,0.5668184330240529,1
1321,0,0,0,0.0304302773485172,0.0031279283542429,0.02895148504613,0.1999999999999999,0.5384615384615384,0.2222222222222222,0.4759544579132208,0.0270097713722149,0.1763316120226183,0.7689315946007779,0.7500000349440343,0.730769197789506,0.5745914223862122,0
651,0,0,0,0.004544545965194,0.0,0.023213352874825,0.1333333333333333,0.5,0.3333333333333333,0.5247252747252747,0.1508078275135367,0.1763316120226183,0.8477236330359186,0.5675943089413686,0.7244845482515277,0.5696803845880395,1
1159,0,0,0,0.0329824941583929,0.0043341846655872,0.0125195611010292,0.1666666666666666,0.5384615384615384,0.2222222222222222,0.4971961028662059,0.0182432546072798,0.1763316120226183,0.8032486845115534,0.6363635728290284,0.7019230720898414,0.5649303644225937,0
2150,0,1,0,0.0036024865962549,0.0021783769297017,0.0062648558080266,0.0643847926119646,0.4762967084403197,0.3333333333333333,0.5628323126407754,0.0408074742771581,0.1763316120226183,0.9092877279670784,0.5681818213585486,0.7012648398317141,0.5656825004167502,1
2452,0,0,1,0.0963486731470782,0.0094616184576056,0.0353736803487524,0.1718837189579193,0.4639463318267321,0.0034780348608351,0.2947346012737587,0.0102609441631405,0.1763316120226183,0.6567359265873481,0.5901976563232472,0.7295652924625858,0.5686849808697344,1
2028,0,0,0,0.0014444227641781,0.0023018917420035,0.023592774336239,0.2742450327676662,0.5384615384615385,0.2222222222222222,0.5896590497302749,0.0521779176152482,0.1763316120226183,0.9526278530256942,0.5526806331370286,0.694493761868095,0.566638437397549,1
2424,0,0,0,0.0,0.0,0.0282457604336189,0.0049796278505235,0.4756783307926799,0.1111111111111111,0.5677809059335733,0.0408074742771581,0.1763316120226183,0.9172824629010572,0.5675943089413686,0.7052537977850847,0.5718871426734209,1
393,0,0,0,0.0833560586971779,0.0148515818137193,0.0255607705812679,0.2333333333333333,0.5384615384615385,0.0,0.1785714285714286,0.0105578985903212,0.1763316120226183,0.2884923358499199,0.5675943089413686,0.7052537977850847,0.5736253165898504,1
2504,0,0,0,0.0493854923279884,0.0065517036883739,0.0273202405370902,0.3666666666666666,0.5385905170613411,0.2222222222222222,0.351675989919738,0.0184454454219621,0.1763316120226183,0.5681526356479574,0.5340528208164074,0.7139503522859904,0.6015240784195416,1
2087,0,0,0,0.0473664457311511,0.086585966156775,0.0730993169044247,0.5297740923828954,0.4828226390098681,0.0,0.31961492900338,0.0089204158788242,0.1763316120226183,0.5163561616678719,0.558031585414754,0.7036967518151311,0.577274028955543,1
2170,0,0,0,0.0992388048290979,0.0183317169591912,0.0232053303534333,0.1258243053717784,0.5384615384615384,0.0716726853077032,0.2211024726001756,0.0079604049145355,0.1763316120226183,0.3572036651826584,0.5533129786240716,0.7031052992936716,0.5735214514947755,1
964,0,0,0,0.0327207250596661,0.0045147576342172,0.0292123092357348,0.2666666666666666,0.5384615384615385,0.2222222222222222,0.4368131868131868,0.0282316370416558,0.1763316120226183,0.7056966369251887,0.49941248758282,0.7244845482515277,0.5799050042662024,0
221,0,0,0,0.0155423426855031,0.0125848107093003,0.0200834625995676,0.1999999999999999,0.5384615384615384,0.2222222222222222,0.3681318681318681,0.0408074742771581,0.1763316120226183,0.5947380462136811,0.5675943089413686,0.7148691730183062,0.5640749582487317,1
1073,0,0,0,0.0591699760983914,0.0097916526600297,0.0086071982569575,0.0666666666666666,0.5384615384615384,0.1111111111111111,0.2802197802197803,0.006349459525202,0.1763316120226183,0.4527110501029513,0.5681818213585486,0.7115384473230629,0.5840914627171038,1
2502,0,0,0,0.0541449323892731,0.0055847493880682,0.0215077991732513,0.2333333333333333,0.4502503476863395,0.2222222222222222,0.4154795593119209,0.0128536572862944,0.1763316120226183,0.550354609929078,0.5681276636725446,0.7022301028709675,0.5701314241815669,1
1614,0,0,0,0.0,0.0,0.0318205511317825,0.4333333333333333,0.5384615384615385,0.0,0.6456043956043956,0.0408074742771581,0.0698728908050249,0.7750249696274032,0.5681818213585486,0.7019230720898414,0.5716931049971267,0
1512,0,0,0,0.0881823693981822,0.1272110541593311,0.0594679233806446,0.2666666666666666,0.4615384615384616,0.1111111111111111,0.2884615384615385,0.0109507397971671,0.1763316120226183,0.6058339052848318,0.5909091417367772,0.6923076968566199,0.5735448077734868,1
1498,0,0,0,0.1706931338879294,0.5439119895188302,0.6087637155928369,0.7000000000000001,0.5000000000000001,0.1111111111111111,0.6565934065934066,0.0408074742771581,0.1888426373299635,0.7750249696274032,0.6363636427170971,0.7019230720898414,0.5815151805934722,0
2576,0,0,0,0.0459532707756065,0.0497146648663224,0.0437328551398029,0.6534828276716994,0.5000000000000001,0.0439461299832239,0.4790778267553254,0.0264108311974351,0.3258604279293792,0.7845101686538164,0.5905539295049979,0.692527353245817,0.5477397013848121,1
2408,1,0,0,0.0,0.0,0.0220144577667522,0.207643589714695,0.4950596646887236,0.0,0.6081156235374302,0.0408074742771581,0.1763316120226183,0.9824455015264052,0.5705135951326126,0.7136340903956139,0.56379588579115,1
761,0,0,0,0.0163603772541608,0.0,0.0174752207035199,0.0,0.4768197583614587,0.2222222222222222,0.4313186813186813,0.0311640437757386,0.1763316120226183,0.6968199496682681,0.5903215594315285,0.7244845482515277,0.5667015583825904,1
407,0,0,1,0.0380923757794114,0.0049143098423273,0.0352112655966446,0.4666666666666667,0.576923076923077,0.0,0.6923076923076923,0.0203867266180277,0.1924477811640526,0.7750249696274032,0.5681818213585486,0.6923076968566199,0.5676676641789523,0
1963,0,0,1,0.3021302528311551,0.2754276167001697,0.4726531892901464,0.2034619025060332,0.4761241763447617,1.0,0.2884745661321417,0.0106790309137177,0.1763316120226183,0.4660471279338211,0.6120987072266948,0.6240013496295462,0.5973165057671108,1
1992,0,0,1,0.1667054723154849,0.2238432808005115,0.0678346270871706,0.0856157285621185,0.4615384615384616,0.0631635396515063,0.3114544976298658,0.0114145160186032,0.1763316120226183,0.5682917052564306,0.5361174990428702,0.7405836247901944,0.5775980749534823,1
478,0,0,0,0.0266401274074484,0.0061284518400493,0.0365153865446685,0.3333333333333333,0.4230769230769232,0.1111111111111111,0.695054945054945,0.0286916764194098,0.1996580688322307,0.7750249696274032,0.5681818213585486,0.7052537977850847,0.569760893404403,0
282,0,0,0,0.0916180360567963,0.0087285603207178,0.0388628042511115,0.1666666666666666,0.5,0.0,0.3901098901098901,0.0116466967184346,0.1763316120226183,0.6280256234271334,0.5681818213585486,0.7115384473230629,0.569760893404403,0
931,0,0,1,0.0,0.0,0.0279081882877109,0.4,0.4615384615384616,0.1111111111111111,0.5631868131868132,0.0408074742771581,0.1763316120226183,0.9098604438343628,0.6136363223388684,0.6826923216233983,0.559214238460786,0
1431,0,0,0,0.0188416915178144,0.0033863604929683,0.0127803852906339,0.1,0.5384615384615385,0.1111111111111111,0.5137362637362638,0.0291075966522637,0.1763316120226183,0.8299702585220774,0.5681818213585486,0.7211538225562845,0.5755575281825741,0
435,0,0,1,0.1306375144086136,0.0036212054911593,0.0331246720798064,0.1666666666666666,0.4615384615384616,0.0,0.793956043956044,0.0062900578062664,0.4592284248866424,0.7750249696274032,0.5000000698880687,0.7307692273575351,0.6482569893588035,0
1017,0,0,0,0.0902546811018348,0.000868844658958,0.0229525286852202,0.2333333333333333,0.5000000000000002,0.1111111111111111,0.5054945054945055,0.0071409549648337,0.1763316120226183,0.8166552276366964,0.47727274950984,0.7019230720898414,0.5547862535607943,0
2015,0,0,0,0.0272547914513336,0.0011441543053749,0.0144870827941415,0.1331807768358313,0.4883568347335949,0.1111111111111111,0.5179640162276457,0.0234773171627683,0.1763316120226183,0.8368004339952282,0.5681818213585486,0.7116264606011278,0.5689730306307452,1
1475,0,0,0,0.1787915141500348,0.0017954076315166,0.0245174738228488,0.2666666666666666,0.5384615384615385,0.0,0.6236263736263736,0.0036478437337441,0.1131346168140934,0.7750249696274032,0.5681818213585486,0.730769197789506,0.5617905205844177,0
495,0,0,1,0.0408463747767632,0.0076029885330677,0.0354720897862494,0.5333333333333333,0.4230769230769231,0.2222222222222222,0.804945054945055,0.011504295778018,0.4880695755593547,0.7750249696274032,0.5227273203782287,0.7115384473230629,0.5716931049971267,0
834,0,0,0,0.0037871167295524,0.0024135407974173,0.0372978591134828,0.4333333333333333,0.576923076923077,0.2222222222222222,0.4258241758241758,0.4365388509176913,0.1763316120226183,0.8299702585220774,0.5675943089413686,0.743715357854029,0.5778117750407518,0
1553,0,0,0,0.0,0.0,0.0305164301837587,0.3666666666666666,0.5,0.0,0.6593406593406593,0.0408074742771581,0.1059243291459153,0.7750249696274032,0.5909090718487086,0.7019230720898414,0.5676676641789523,0
1355,0,0,0,0.0,0.0,0.0237350012540345,0.0333333333333333,0.5000000000000001,0.2222222222222222,0.6346153846153846,0.0408074742771581,0.0951088976436482,0.7750249696274032,0.5681818213585486,0.7211538225562845,0.5774897397752977,0
1366,0,0,0,0.0,0.0,0.0140845062386578,0.1999999999999999,0.4615384615384616,0.0,0.6098901098901099,0.0408074742771581,0.1763316120226183,0.985312285518188,0.5681818213585486,0.7211538225562845,0.5716931049971267,1
1565,0,0,0,0.1685390138193018,0.0017954295802963,0.0224308803060106,0.1666666666666666,0.5,0.2222222222222222,0.554945054945055,0.0042995393080606,0.1763316120226183,0.8965454129489819,0.52272725049016,0.7019230720898414,0.559858308991694,0
2193,0,0,0,0.0071230945950892,0.0009759912517094,0.0290413623365466,0.0531872832816991,0.5073552691116135,0.2884020553834417,0.4868492980896898,0.1356996049403457,0.1763316120226183,0.8499782604138476,0.5817185921694169,0.7019230720898414,0.568742976215363,1
1325,0,0,0,0.0,0.0,0.0140845062386578,0.0,0.4768197583614587,0.5555555555555556,0.41506174238133,0.0408074742771581,0.1763316120226183,0.6705559368565546,0.5909090718487086,0.7403846025907567,0.5633201880953239,0
979,0,0,1,0.258766425466145,0.8024036921043556,0.1804903392065045,0.1999999999999999,0.4807692307692308,0.1111111111111111,0.3708791208791209,0.0408074742771581,0.1763316120226183,0.5991763898421414,0.5681818213585486,0.7019230720898414,0.5685532611589507,1
2458,0,0,0,0.0147796145672493,0.0022550497774703,0.0093846340137035,0.0,0.4627702207487271,0.1111111111111111,0.5157875222493298,0.0258396357188488,0.1763316120226183,0.7973927725860483,0.5348147927756837,0.7052537977850847,0.5694159640617499,1
188,0,0,1,0.0,0.0,0.0242566496332441,0.0333333333333333,0.4615384615384616,0.0,0.521978021978022,0.0408074742771581,0.1763316120226183,0.8432852894074583,0.5681818213585486,0.7019230720898414,0.5680043359472211,1
1508,0,0,0,0.0353929255082614,0.0039079903115187,0.0299947818045491,0.0,0.4615384615384616,0.1111111111111111,0.532967032967033,0.0253153915295314,0.1763316120226183,0.8610386639212995,0.5909090718487086,0.7019230720898414,0.5696803845880395,0
1867,0,0,0,0.0234963060423707,0.0030786297159587,0.0339302278787302,0.1666666666666666,0.4201554522733629,0.7777777777777777,0.4452194943141548,0.0424001082111123,0.1763316120226183,0.7192775065314198,0.5483643287960347,0.730074497076463,0.5664070137838709,1
485,0,0,0,0.0932813353842293,0.0122689159068259,0.0354720897862494,0.4333333333333333,0.6153846153846154,0.1111111111111111,0.2637362637362638,0.0115324328432177,0.1763316120226183,0.4260809883321894,0.5681818213585486,0.7019230720898414,0.559858308991694,0
1357,0,0,0,0.0,0.0,0.0088680224465623,0.0666666666666666,0.4615384615384616,0.0,0.6510989010989011,0.0408074742771581,0.0842934661413811,0.7750249696274032,0.5454545708683886,0.7019230720898414,0.5774897397752977,1
1179,0,0,0,0.0,0.0,0.0542514314377932,0.0,0.4576923076923078,0.0,0.6288943015747139,0.0408074742771581,0.0260165018954879,0.7750249696274032,0.5227273203782287,0.7019230720898414,0.5649303644225937,0
1898,0,0,1,0.1061052541535041,0.2139157732193806,0.2051362122368647,0.0709639028348427,0.4264943709112846,0.062717615835849,0.4879764592720354,0.0343816843214626,0.1763316120226183,0.7883538240209118,0.5711117218036826,0.7090592879077984,0.5680396142001461,1
1552,0,0,0,0.1746468907427297,0.0156533986635055,0.035993738165459,0.1999999999999999,0.5384615384615384,0.4444444444444445,0.1153846153846154,0.0055800718309811,0.1763316120226183,0.1864104323953329,0.5675943089413686,0.7340999530527784,0.5244344297917594,0
599,0,0,0,0.1004526327063659,0.0114641549003553,0.0229525286852202,0.2666666666666666,0.4615384615384616,0.1111111111111111,0.3763736263736263,0.0076781557933152,0.1763316120226183,0.608053077099062,0.5000000698880687,0.7115384768910921,0.5677481729953158,0
2147,0,0,0,0.016385442012862,0.0117883026944449,0.0330311252485506,0.210942276190011,0.4744563791211476,0.4071260158722405,0.4068021310837776,0.0408074742771581,0.1575275885055826,0.6572120633404722,0.583275764382172,0.7051525483343647,0.5692870155784916,1
2478,0,0,0,2.4804690270159298e-05,4.921843428487278e-05,0.0233894385810375,0.0978340842409185,0.4615384615384616,0.7813876373762468,0.4709825368643801,0.0408074742771581,0.1779721181275451,0.7608991723453459,0.5886939328988332,0.7202166474220363,0.5715178578064495,1
1207,0,0,1,0.0143425848280546,0.0019583255359601,0.0211267593579868,0.3333333333333333,0.4768197583614587,0.0,0.8526396284128243,0.0318265115272756,0.6132461161079312,0.7750249696274032,0.47727274950984,0.730769197789506,0.5512438656408007,0
767,0,0,0,0.0163603772541608,0.0,0.008085549877748,0.0333333333333333,0.5000000000000001,0.0,0.6510989010989011,0.0196850727714179,0.0842934661413811,0.7750249696274032,0.5909090718487086,0.7019230720898414,0.5765236339789359,0
457,0,0,0,0.0105524348869858,0.0040966057303211,0.0169535723243103,0.1666666666666666,0.5384615384615384,0.0,0.4615384615384615,0.0614887357081547,0.1763316120226183,0.7456417295813316,0.5675943089413686,0.7148691730183062,0.5657354525862286,1
2268,0,0,0,0.0890070393047013,0.0110767859194016,0.0201587895441602,0.0747569592004685,0.4768197583614587,0.6666666666666665,0.2731384421865622,0.0198637611470408,0.1408984980796491,0.441270744302134,0.5554391703263106,0.7169295689281164,0.5360476290120983,1
812,0,0,0,0.0,0.0,0.0247782980124536,0.3666666666666666,0.6153846153846154,0.2222222222222222,0.6263736263736264,0.0408074742771581,0.0194008771277781,0.7750249696274032,0.5675943089413686,0.7052537977850847,0.5671041024644079,1
1878,0,0,0,0.010254239597404,0.002240648863551,0.0231945457851613,0.0353648101822396,0.4992936481363889,0.1111111111111111,0.5494548646415449,0.0736758637468493,0.1763316120226183,0.887675697129429,0.4352809241414852,0.7019230720898414,0.5638036903164462,1
1047,0,0,0,0.0605333605020084,0.0,0.0255607705812679,0.3,0.4615384615384616,0.0,0.5274725274725275,0.0117340087735839,0.1203449044822715,0.8521619766643789,0.4318181786414514,0.7115384768910921,0.5613074676862367,0
168,0,0,0,0.0,0.0,0.0370370349238781,0.4333333333333333,0.5384615384615385,0.0,0.6208791208791209,0.0408074742771581,0.0049803017914219,0.7750249696274032,0.5454545708683886,0.6826923216233983,0.5687112516601823,0
296,0,0,0,0.0,0.0,0.0096504950153766,0.1,0.5000000000000001,0.0,0.6181318681318682,0.0408074742771581,0.1763316120226183,0.9986273164035688,0.5681818213585486,0.7211538225562845,0.569760893404403,0
1700,0,0,0,0.0,0.0,0.0242566496332441,0.2333333333333333,0.5961538461538463,0.0,0.6189815339299876,0.0408074742771581,0.0,1.0,0.5903215594315285,0.7052537977850847,0.5620320470335082,0
845,0,0,1,0.0918907109742761,0.0158077038718815,0.0242566496332441,0.2333333333333333,0.4768197583614587,0.2222222222222222,0.1895604395604396,0.0089476063182352,0.1763316120226183,0.3062457103637612,0.5909090718487086,0.6923076968566199,0.572578701977125,1
2209,0,0,0,0.0252162897050391,0.0030760811218924,0.0334255041089275,0.1712579730127033,0.4252352294789062,0.7777777777777777,0.4404164599384972,0.0417257170552312,0.1763316120226183,0.7049970358511773,0.5480244660282054,0.7247730957645911,0.5702218151419833,1
1677,1,0,0,0.0066750285796747,0.0016551441088308,0.0284298366669205,0.2333333333333333,0.730769230769231,0.2222222222222222,0.5085249801744647,0.3390376058339499,0.1763316120226183,0.821551132463967,0.5000000698880687,0.7019230720898414,0.5584091502971512,0
1456,0,0,0,0.1372634618957907,0.4373886690544923,0.2410015674963242,0.3333333333333333,0.6153846153846155,0.1111111111111111,0.7005494505494505,0.0408074742771581,0.2140786441685868,0.7750249696274032,0.6590908932072571,0.7115384473230629,0.5794219513680214,0
194,0,0,0,0.0,0.0,0.0250391222020584,0.2666666666666666,0.5,0.1111111111111111,0.6098901098901099,0.0408074742771581,0.1763316120226183,0.985312285518188,0.5681818213585486,0.7019230720898414,0.569947746316301,1
1098,0,0,0,0.0,0.0,0.0206051109787772,0.0,0.4768197583614587,0.8888888888888888,0.5961538461538461,0.0408074742771581,0.1763316120226183,0.9631205673758864,0.5681818213585486,0.7019230720898414,0.5842524803498308,0
857,0,0,1,0.0,0.0,0.0130412094802387,0.1333333333333333,0.5000000000000001,0.0,0.6071428571428572,0.0408074742771581,0.0626626031368468,0.9808739418897278,0.5681818213585486,0.6923076968566199,0.5701634374862203,1
1427,0,0,0,0.0580792960609095,0.0005213005395181,0.035993738165459,0.4,0.5384615384615385,0.0,0.6648351648351648,0.0162152149515057,0.1203449044822715,0.7750249696274032,0.5681818213585486,0.7019230720898414,0.5774897397752977,0
2215,0,0,0,0.055141869206646,0.0198425712380873,0.0566444701907947,0.4544627119586608,0.4939049869350017,0.0,0.3449828762164572,0.0070929213540872,0.1763316120226183,0.5573395284122933,0.5645802262531542,0.710014695543608,0.5800946171964088,1
1587,0,0,1,0.0952173194453605,0.048614680569704,0.0479916508872786,0.6666666666666666,0.5384615384615385,0.0,0.4313186813186813,0.0090388491607162,0.1763316120226183,0.6968199496682681,0.52272725049016,0.7884615083248934,0.5597778001753304,0
2490,0,0,0,0.0481424891271832,0.0100583734580721,0.0266982394145285,0.0606490707409585,0.4768197583614587,0.9544737709872914,0.334267668147014,0.0311866022750396,0.1763316120226183,0.5773087615859396,0.5678350339650398,0.7209159245880784,0.5708094034971893,1
2286,0,0,1,0.3294698279119535,0.5679157214315856,0.2446858751869202,0.114786042375661,0.4302104965221818,1.0,0.4883910029809872,0.0370706946007905,0.1763316120226183,0.7890235430451932,0.5782632479868235,0.7471316248247807,0.5548802248494874,1
1980,0,0,0,0.0364897321964352,0.0048252072452472,0.0314058278454935,0.1666666666666666,0.4230769230769232,0.7459758283172583,0.4266762102954751,0.0343380153590449,0.1763316120226183,0.7045637545486633,0.5515401526561776,0.7235312361194849,0.5646854345605339,1
1090,0,0,1,0.0278126158099053,0.0030098474524035,0.0284298366669205,0.3,0.4230769230769231,0.3333333333333333,0.6538461538461539,0.0068484644304808,0.0915037538095592,0.7750249696274032,0.5675943089413686,0.7052537977850847,0.6007567877043457,0
840,0,0,0,0.037083494290686,0.0090712771852451,0.0130412094802387,0.1999999999999999,0.576923076923077,0.0,0.8241758241758241,0.0148690987828807,0.5385415892366016,0.7750249696274032,0.5681818213585486,0.7596153826252288,0.5705659815680378,0
908,0,0,0,0.0,0.0,0.1158059401845202,0.1,0.4615384615384616,0.1111111111111111,0.5741758241758242,0.0408074742771581,0.1763316120226183,0.927613818348204,0.5675943089413686,0.7052537977850847,0.566137996668046,0
456,0,0,0,0.0095708130370336,0.0023459462656822,0.0271257157188966,0.3,0.6153846153846155,0.2222222222222222,0.4313186813186813,0.0408074742771581,0.1763316120226183,0.6968199496682681,0.5681818213585486,0.7211538225562845,0.5716931049971267,0
2414,0,0,0,0.0044745777756116,0.0071290989999268,0.0215949317971692,0.2786331548949222,0.5315577952529296,0.1111111111111111,0.5516345418523032,0.0408074742771581,0.1763316120226183,0.8911970900810395,0.6241251882770756,0.7255914196959158,0.5702068545381221,1
1602,0,0,0,0.0662594748717714,0.0,0.0320813753213873,0.3666666666666666,0.4846153846153847,0.2222222222222222,0.6153846153846154,0.0132026029632674,0.1763316120226183,0.9941889727751086,0.5675943089413686,0.6956384225518631,0.5676676641789523,0
2329,0,0,1,0.0513842441408219,0.0072749511230838,0.0215222728796632,0.2062593809530417,0.4797135537434839,0.2170060714280207,0.4352655376764457,0.0136737782755146,0.1763316120226183,0.7031963214037952,0.5459615783227103,0.7596299628659473,0.5859091498572244,1
1222,0,0,0,0.0041228117697991,0.0131372990878203,0.0234741770644297,0.3,0.5,0.2222222222222222,0.4504644839696387,0.0408074742771581,0.1763316120226183,0.7277510867078472,0.4539579167144314,0.7052537977850847,0.5528540419680705,1
93,0,0,0,0.0264492608549437,0.0031615459321836,0.0297339576149443,0.0666666666666666,0.5384615384615384,0.2222222222222222,0.543956043956044,0.0328211709460677,0.1763316120226183,0.8787920384351406,0.5681818213585486,0.7115384473230629,0.5673072986660277,0
1226,0,0,0,0.0210067075889764,0.0034831136040478,0.0146061546178674,0.1666666666666666,0.4768197583614587,0.0,0.682706468788943,0.0159815113758724,0.1672489407567085,0.7750249696274032,0.5221398079610486,0.7052537977850847,0.549633689313531,0
787,0,0,0,0.0128762086599406,0.0024135407974173,0.0430359912847879,0.3666666666666666,0.5,0.7777777777777777,0.4065934065934066,0.1283746223131981,0.1763316120226183,0.6568748570121254,0.5448670584512086,0.6956384225518631,0.5687947876080411,0
1274,1,0,0,0.0316082235684598,0.0086909138928663,0.02895148504613,0.0666666666666666,0.5,0.2222222222222222,0.501444431856803,0.0339623700655613,0.0836244703783542,0.8101121024937086,0.5681818213585486,0.7115384473230629,0.5681507170771332,0
1336,0,0,0,0.0,0.0,0.0281690124773157,0.0,0.4615384615384616,0.1111111111111111,0.6098901098901099,0.0408074742771581,0.1763316120226183,0.985312285518188,0.5681818213585486,0.7211538225562845,0.5774897397752977,0
1034,0,0,0,0.0,0.0,0.0169535723243103,0.2333333333333333,0.5384615384615385,0.0,0.5274725274725275,0.0408074742771581,0.1763316120226183,0.8521619766643789,0.5675943089413686,0.7052537977850847,0.5662185054844094,1
134,0,0,0,0.0227954385563962,0.0084280533258961,0.0357329139758542,0.3666666666666666,0.5,0.2222222222222222,0.4560439560439561,0.0578411751466709,0.1763316120226183,0.7367650423244109,0.5681818213585486,0.7115384473230629,0.5737863342225773,0
210,0,0,0,0.6023340729494044,0.0117445545083966,0.0211267593579868,0.3,0.4615442413173273,0.8888888888888888,0.3571428571428571,0.000762416046994,0.1491860551549839,0.5769846716998399,0.2727272155461255,0.5865384510190665,0.5713710697316727,0
432,0,0,0,0.0131700964255977,0.0031710836592954,0.0534689588689789,0.0666666666666666,0.4615384615384616,0.4444444444444445,0.5714285714285715,0.0681562387936546,0.1763316120226183,0.9231754747197438,0.49941248758282,0.7052537977850847,0.5677481729953158,1
1468,0,0,0,0.0306484231722321,0.0050640938111864,0.0286906608565252,0.0,0.4615384615384616,0.2222222222222222,0.4423076923076923,0.0252237813111103,0.1763316120226183,0.7145733241821094,0.6363635728290284,0.7211538225562845,0.5774897397752977,1
1752,0,0,0,0.0007634858424557,0.0015149383989506,0.020865935168382,0.0333333333333333,0.4615384615384616,0.8888888888888888,0.4249745100260564,0.0408074742771581,0.1763316120226183,0.6865705788149166,0.5227273203782287,0.6923076672885907,0.566299014300773,1
2651,0,1,0,0.0,0.0,0.0176412389421657,0.0342653488120915,0.4747174418508045,0.2952607235421205,0.5557713351601843,0.0408074742771581,0.1763316120226183,0.8210556948086617,0.5601929365236364,0.6871283482641022,0.5670945243487829,1
2539,0,0,0,0.011272077581231,0.002029399336316,0.0243634580260937,0.159747586263193,0.5614413793319973,0.0,0.511351231568852,0.0406241168556221,0.068285235219087,0.726674483363504,0.5681818213585486,0.6961781174778426,0.5808979241301226,1
945,0,0,0,0.0016360396886597,0.005213224350166,0.0109546159634005,0.0666666666666666,0.5,0.1111111111111111,0.3461538461538461,0.0408074742771581,0.1763316120226183,0.5592312971859986,0.5675943089413686,0.7052537977850847,0.5690363140571315,0
2059,0,0,1,0.2958602759206256,0.538963090098053,0.204905091273674,0.317768076649745,0.4615384615384616,0.578397756486182,0.6519189159235206,0.0408074742771581,0.0864456317124555,0.9244519104344524,0.3468494952020515,0.7401163602453,0.6025077787110591,1
1125,0,0,0,0.0,0.0,0.013823682049053,0.1333333333333333,0.4615384615384616,0.0,0.5961538461538461,0.0408074742771581,0.1763316120226183,0.9631205673758864,0.5681818213585486,0.730769197789506,0.5848965508807387,0
2158,0,0,0,0.0,0.0,0.0226125134781776,0.251983918319202,0.4768197583614587,0.0,0.6358744819327369,0.0408074742771581,0.0443362973374766,0.7750249696274032,0.5780633818912659,0.7026566351978067,0.5716931049971267,1
2565,0,0,0,0.2906809012373643,0.0203834264985115,0.0305675770881344,0.0052292598017364,0.4630469018658856,0.1111111111111111,0.3017668192471097,0.0027710011920279,0.1763316120226183,0.4022360367921397,0.5708558720498728,0.7222851824256336,0.5723595592155732,1
2559,0,0,0,0.0453859824059996,0.0033361583655243,0.028013368605425,0.3467753787041277,0.5694816431633718,0.0,0.4340211351493979,0.0258259000009202,0.1763316120226183,0.7011859180899082,0.5865118652930769,0.7268917004088844,0.5566441655996422,1
2403,0,0,0,0.0102552097999973,0.0031012224121419,0.0184329015441238,0.0,0.4628382951161485,0.1111111111111111,0.5157376493906095,0.0471598529651449,0.1763316120226183,0.8332036112872864,0.5348634991207518,0.7106369109201189,0.5696857292278731,1
463,0,0,0,0.0155696121404948,0.0056556421829641,0.0310380785629682,0.1666666666666666,0.3846153846153846,0.7777777777777777,0.5192307692307693,0.0408074742771581,0.1763316120226183,0.838846945778998,0.5909090718487086,0.7980769426941732,0.5638032409935049,1
